year,name,description,longitude,latitude
2019,Cafe Sua Da,Cafes and Restaurants,144.96553,-37.79671
2019,Brother Bull,Cafes and Restaurants,144.9649,-37.79668
2019,Clyde Hotel,"Pubs, Taverns and Bars",144.96575,-37.797259999999994
2019,The Longing Flavour,Cafes and Restaurants,144.96517,-37.79783
2019,Masters Of Burgerology,Cafes and Restaurants,144.96517,-37.79783
2019,Wild Timor Coffee Carlton Pty Ltd,Cafes and Restaurants,144.96526,-37.79872
2019,Toothpicks Cafe,Cafes and Restaurants,144.96489,-37.79947
2019,Claypot Kingdom,Cafes and Restaurants,144.96476,-37.799
2019,E Dumpling,Cafes and Restaurants,144.96476,-37.799
2019,Thresherman's Bakehouse,Cafes and Restaurants,144.96673,-37.79886
2019,New York Minute,Cafes and Restaurants,144.9663,-37.798809999999996
2019,Dumpling ADA,Cafes and Restaurants,144.96656000000002,-37.80046
2019,Il Cantuccio Restaurant,Cafes and Restaurants,144.9666,-37.80042
2019,Papa Gino's Pizza Restaurant,Cafes and Restaurants,144.96672,-37.80019
2019,Cafe Corretto,Cafes and Restaurants,144.96674,-37.80005
2019,Original Lolly Store,Other Specialised Food Retailing,144.96678,-37.79983
2019,New Zealand Natural Ice Cream,Takeaway Food Services,144.96679,-37.79978
2019,La Parisienne Pates,Cafes and Restaurants,144.96683000000002,-37.79954
2019,University Cafe,Cafes and Restaurants,144.96684,-37.799479999999996
2019,Lygon Food Store,Cafes and Restaurants,144.96687,-37.7993
2019,Tiamo Coffee,Cafes and Restaurants,144.96708999999998,-37.79822
2019,Tiamo 2,Cafes and Restaurants,144.96708,-37.79818
2019,Milk The Cow,Cafes and Restaurants,144.96713,-37.79777
2019,Heartattack and Vine,Cafes and Restaurants,144.96715,-37.79764
2019,Jimmy Watsons,Cafes and Restaurants,144.96716999999998,-37.797509999999996
2019,Intersection Cafe,Cafes and Restaurants,144.96723,-37.79735
2019,Le Miel Et Le Lune,Cafes and Restaurants,144.96638000000002,-37.796859999999995
2019,Adonai Foods,Cafes and Restaurants,144.96921,-37.79477
2019,Chong Quing,Cafes and Restaurants,144.96903999999998,-37.79314
2019,Rathdowne & Reeves Cafe,Cafes and Restaurants,144.97077,-37.793659999999996
2019,Curry in Carlton,Takeaway Food Services,144.96816,-37.79698
2019,Green Man's Arms,"Pubs, Taverns and Bars",144.96781000000001,-37.79695
2019,Campos Coffee,Cafes and Restaurants,144.96981,-37.79715
2019,Shompen,Cafes and Restaurants,144.97032,-37.79692
2019,The Beaufort,"Pubs, Taverns and Bars",144.97043,-37.79652
2019,The Moor's Head,Cafes and Restaurants,144.96927,-37.797709999999995
2019,Vincent The Dog,Cafes and Restaurants,144.96927,-37.797779999999996
2019,Cafe Lua,Cafes and Restaurants,144.96929,-37.797579999999996
2019,Masani's Italian Dinning & Terrace,Cafes and Restaurants,144.96849,-37.79838
2019,The Shaw Davey Slum,Cafes and Restaurants,144.96871000000002,-37.797509999999996
2019,The Heart of Carlton,Cafes and Restaurants,144.96821,-37.79746
2019,Crinitis Southern Italian Cuisine,Cafes and Restaurants,144.96784,-37.79851
2019,Yo-Chi,Cafes and Restaurants,144.96802,-37.79844
2019,Market Lane Coffee,Cafes and Restaurants,144.96849,-37.79857
2019,The Carlton Wine Room,Cafes and Restaurants,144.96858999999998,-37.79858
2019,Trotters Bistro,Cafes and Restaurants,144.96776,-37.79763
2019,Brunetti Carlton,Cafes and Restaurants,144.96815,-37.79804
2019,Cinema Nova,Motion Picture Exhibition,144.96815,-37.79804
2019,Seasalt Fish & Sushi Bar,Cafes and Restaurants,144.96764,-37.79828
2019,Sea Saltfish & Sushi Bar,Cafes and Restaurants,144.96763,-37.79833
2019,Gemma Simple Italian,Cafes and Restaurants,144.96838,-37.79753
2019,The Vertue of the Coffee Drink,Cafes and Restaurants,144.96838,-37.79769
2019,Doc Pizza & Mozarella Bar,Cafes and Restaurants,144.96844,-37.79899
2019,Shakahari Vegetarian Restaurant,Cafes and Restaurants,144.9678,-37.799
2019,Il Vicolo,Cafes and Restaurants,144.96788,-37.8006
2019,Grill'd Healthy Burgers,Cafes and Restaurants,144.96753,-37.79887
2019,Boost Juice,Takeaway Food Services,144.9675,-37.799
2019,Lavenzzi Gelateria,Takeaway Food Services,144.96749,-37.79916
2019,DOC Delicatessen,Other Specialised Food Retailing,144.96748,-37.79926
2019,DOC Espresso,Cafes and Restaurants,144.96747,-37.79932
2019,Donnini's,Cafes and Restaurants,144.9675,-37.79954
2019,Copperwood,Cafes and Restaurants,144.96759,-37.79963
2019,St. Charly,Cafes and Restaurants,144.96742,-37.79979
2019,Carlton Yacht Club Bar,"Pubs, Taverns and Bars",144.96738,-37.79999
2019,East Imperial,Cafes and Restaurants,144.96988000000002,-37.79918
2019,Soap Bar,Laundry and Dry-Cleaning Services,144.97242,-37.7979
2019,Abla's Restaurant,Cafes and Restaurants,144.97103,-37.79781
2019,Paris Go Bistro,Cafes and Restaurants,144.97088,-37.79696
2019,Carlton Wok,Takeaway Food Services,144.97107,-37.79586
2019,Bloom Coffee Bar,Cafes and Restaurants,144.97104,-37.79605
2019,Ziyka,Cafes and Restaurants,144.97104,-37.79605
2019,Osc&r On Rathdowne,Cafes and Restaurants,144.97118999999998,-37.79514
2019,Sushi Ten,Cafes and Restaurants,144.97118,-37.795190000000005
2019,Bangkok Rain,Cafes and Restaurants,144.97118,-37.79523
2019,Zikya Pizza Cottage,Takeaway Food Services,144.97117,-37.79528
2019,Fu Lu Chinese Cafe,Cafes and Restaurants,144.97116,-37.795320000000004
2019,The Olive Jar,Cafes and Restaurants,144.97115,-37.79538
2019,Moretons Brasserie,Cafes and Restaurants,144.97114,-37.79544
2019,Cure Bar & Eatery,Cafes and Restaurants,144.97113000000002,-37.79548
2019,Calrton Pizzeria Bar and Restaurant,Cafes and Restaurants,144.97111999999998,-37.79554
2019,Dan O'Connell Hotel,"Pubs, Taverns and Bars",144.97339,-37.79303
2019,French Lettuce,Takeaway Food Services,144.97513999999998,-37.7944
2019,Ethos Foodstore,Cafes and Restaurants,144.9748,-37.79639
2019,Scopri Italian Food & Wine,Cafes and Restaurants,144.97492,-37.79569
2019,Books N Bites Cafe,Cafes and Restaurants,144.95833000000002,-37.80169
2019,Haymarket Place,Cafes and Restaurants,144.959,-37.80052
2019,Baretto Cafe,Cafes and Restaurants,144.95928,-37.80023
2019,Cafe  Commercio,Cafes and Restaurants,144.95882,-37.801559999999995
2019,The Dumplings & Tea Co,Cafes and Restaurants,144.95923,-37.80186
2019,The Graduate Union of the University of Melbourne,Accommodation,144.96161999999998,-37.80104
2019,Animal Orchestra,Cafes and Restaurants,144.96341999999999,-37.8006
2019,Mantra Lounge,Cafes and Restaurants,144.9633,-37.80058
2019,Lincoln Bakery Cafe,Cafes and Restaurants,144.96273,-37.80134
2019,Rydges on Swanston,Accommodation,144.96338,-37.80142
2019,Cafe Fillings,Cafes and Restaurants,144.96339,-37.80087
2019,Lanzhou Beef Noodle Bar,Cafes and Restaurants,144.96364,-37.80062
2019,KFC Carlton,Cafes and Restaurants,144.96364,-37.80062
2019,Rakuzen Simple Japanese,Cafes and Restaurants,144.9651,-37.80077
2019,Domino's Pizza,Takeaway Food Services,144.9651,-37.80077
2019,Rice Bar Not Only Rice,Cafes and Restaurants,144.9651,-37.80077
2019,Colourful Yunnan Restaurant,Cafes and Restaurants,144.96424,-37.80063
2019,Xian Famous Foods,Cafes and Restaurants,144.96423000000001,-37.80069
2019,Carlton Black Ball,Cafes and Restaurants,144.96428,-37.801320000000004
2019,Oko Oko,Cafes and Restaurants,144.96428,-37.801320000000004
2019,Subway Carlton,Takeaway Food Services,144.96433000000002,-37.80101
2019,Momo Sushi,Takeaway Food Services,144.96433000000002,-37.80101
2019,Yuan Fang,Takeaway Food Services,144.96434,-37.80195
2019,Spice 9 Grill,Cafes and Restaurants,144.96434,-37.80195
2019,Norsiah's Kitchen,Cafes and Restaurants,144.96434,-37.80195
2019,Don Tojo,Cafes and Restaurants,144.96563,-37.80133
2019,Jokamz,Cafes and Restaurants,144.96563,-37.80133
2019,Tutto Premium Frozen Yogurt And Dessert,Takeaway Food Services,144.96621000000002,-37.80115
2019,Roy's Cafe,Cafes and Restaurants,144.96562,-37.8008
2019,Casa Del Gelato,Takeaway Food Services,144.96643,-37.80187
2019,Kokoblack,Cafes and Restaurants,144.96645,-37.801790000000004
2019,Stuzzichino,Cafes and Restaurants,144.96646,-37.80172
2019,Mixity Restaurant and Cafe,Cafes and Restaurants,144.96647,-37.80166
2019,Hwatu,Cafes and Restaurants,144.96648000000002,-37.80161
2019,Chocolateria San Churro,Cafes and Restaurants,144.96649,-37.801559999999995
2019,Cafe Cavallino,Cafes and Restaurants,144.96651,-37.80145
2019,Cafe Notturno,Cafes and Restaurants,144.96651,-37.80145
2019,Buenos Aires Steakhouse,Cafes and Restaurants,144.96649,-37.801190000000005
2019,Leyalina,Cafes and Restaurants,144.9665,-37.801140000000004
2019,Tono On Borsari,Cafes and Restaurants,144.96667,-37.8009
2019,Gelatissimo Carlton,Takeaway Food Services,144.96665,-37.80102
2019,Seasons Provedore,Cafes and Restaurants,144.96666000000002,-37.80097
2019,Ma Xiao Er Spicy Hot Pot Dips,Cafes and Restaurants,144.96577,-37.80082
2019,NL House,Takeaway Food Services,144.96568,-37.80081
2019,T&Y Penguin Kitchen,Cafes and Restaurants,144.96716999999998,-37.801140000000004
2019,Il Gusto,Cafes and Restaurants,144.96716,-37.801190000000005
2019,Villa Romana,Cafes and Restaurants,144.96733999999998,-37.80138
2019,Front Cooking School,Cafes and Restaurants,144.96726,-37.80151
2019,Piccolo Mondo,Cafes and Restaurants,144.96724,-37.80158
2019,Spaghettata Restaurant,Cafes and Restaurants,144.96723,-37.801629999999996
2019,Carmine's Bistro,Cafes and Restaurants,144.96723,-37.80169
2019,Lygon Dolce Vita,Cafes and Restaurants,144.96721000000002,-37.8018
2019,Little Lygon Restaurant,Cafes and Restaurants,144.96719,-37.80192
2019,Mondi Cafe,Cafes and Restaurants,144.96719,-37.80192
2019,Pertutti Cafe Restaurant,Cafes and Restaurants,144.96714,-37.80219
2019,Players On Lygon,"Pubs, Taverns and Bars",144.9671,-37.80247
2019,Assembly Store,Takeaway Food Services,144.96729,-37.802620000000005
2019,La Cacciatora Restaurant,Cafes and Restaurants,144.9686,-37.801159999999996
2019,The Museum Cafe,Cafes and Restaurants,144.97163,-37.80396
2019,Coffee on Drummond,Cafes and Restaurants,144.96828,-37.8048
2019,Lemongrass,Cafes and Restaurants,144.96678,-37.803059999999995
2019,Il Gambero On The Park,Cafes and Restaurants,144.96681,-37.803309999999996
2019,Vodka Temple,"Pubs, Taverns and Bars",144.96677,-37.80344
2019,Mawal,Cafes and Restaurants,144.96674,-37.80359
2019,La Spaghetteria Ristorante,Cafes and Restaurants,144.96669,-37.80396
2019,Da Guido,Cafes and Restaurants,144.96668,-37.80404
2019,Il Dolce Freddo,Cafes and Restaurants,144.9667,-37.80444
2019,Saigon Pho Carlton,Cafes and Restaurants,144.9667,-37.80444
2019,Carlton Curry House,Cafes and Restaurants,144.9667,-37.80444
2019,Ying Thai 2,Cafes and Restaurants,144.9667,-37.80444
2019,Pho Non La,Cafes and Restaurants,144.9667,-37.80444
2019,Killiney Kopitiam,Cafes and Restaurants,144.9667,-37.80444
2019,Lygon Charcoal Grill & Steakhouse,Cafes and Restaurants,144.9667,-37.80444
2019,Tamra Siam,Cafes and Restaurants,144.9667,-37.80444
2019,Thai City Restaurant,Cafes and Restaurants,144.9667,-37.80444
2019,Shukufuku Japanese Bento,Cafes and Restaurants,144.9667,-37.80444
2019,Confucius Says,Cafes and Restaurants,144.9667,-37.80444
2019,Lambs Restaurant,Cafes and Restaurants,144.9667,-37.80444
2019,Black Cat on Lygon,Cafes and Restaurants,144.96595,-37.80468
2019,I Love Istanbul,Cafes and Restaurants,144.96595,-37.80468
2019,Toto's Pizza,Cafes and Restaurants,144.96598,-37.8045
2019,Mercadante Pizza,Cafes and Restaurants,144.96603000000002,-37.80409
2019,Universal Pizza,Cafes and Restaurants,144.96608,-37.803909999999995
2019,The Balcony Shisha Bar,"Pubs, Taverns and Bars",144.9661,-37.803779999999996
2019,No. 143 Lygon,Cafes and Restaurants,144.9661,-37.803779999999996
2019,Mad Hare,Cafes and Restaurants,144.96611000000001,-37.80373
2019,Tank Fish And Chippery,Cafes and Restaurants,144.96611000000001,-37.8037
2019,Hotel Lincoln,"Pubs, Taverns and Bars",144.96451000000002,-37.80449
2019,Mid Square Coffee,Takeaway Food Services,144.96442,-37.802820000000004
2019,127 Cafe Go,Cafes and Restaurants,144.96395,-37.80277
2019,Cross Roads Carlton,Cafes and Restaurants,144.96364,-37.80431
2019,The Queensberry Pour House,Cafes and Restaurants,144.96203,-37.80421
2019,Wokks,Cafes and Restaurants,144.96296,-37.80404
2019,The Wonder Beans,Cafes and Restaurants,144.96296,-37.80404
2019,Kaprica,Cafes and Restaurants,144.96278,-37.80336
2019,Cafe Tre Sette,Cafes and Restaurants,144.9617,-37.80322
2019,Stovetop,Cafes and Restaurants,144.96104,-37.80335
2019,Refuel Catering,Cafes and Restaurants,144.96097,-37.80393
2019,Mama Tsai,Cafes and Restaurants,144.96107,-37.80239
2019,Momo Sushi Melbourne,Takeaway Food Services,144.96113,-37.8024
2019,Briscola Espresso,Cafes and Restaurants,144.96126,-37.802409999999995
2019,Briscola Cafe,Cafes and Restaurants,144.96133999999998,-37.80242
2019,Porta Via,Cafes and Restaurants,144.96006,-37.80242
2019,Bar Scopa,Cafes and Restaurants,144.96021000000002,-37.8029
2019,Seven Seeds,Cafes and Restaurants,144.95913000000002,-37.80288
2019,Duke Pizza,Takeaway Food Services,144.9585,-37.80279
2019,Arabesque,Cafes and Restaurants,144.95861000000002,-37.803290000000004
2019,The Last Jar,"Pubs, Taverns and Bars",144.95891,-37.80388
2019,Lien Lien Cafe,Cafes and Restaurants,144.95975,-37.80579
2019,Red Capsicum,Cafes and Restaurants,144.96004,-37.80442
2019,Humble Rays,Cafes and Restaurants,144.96141,-37.80478
2019,Book Coffee Print Workshop,Takeaway Food Services,144.96122,-37.80453
2019,Brother Dough,Cafes and Restaurants,144.96066000000002,-37.80608
2019,Queensberry Hotel,"Pubs, Taverns and Bars",144.96291000000002,-37.80475
2019,Mr Bello,Takeaway Food Services,144.96428,-37.805440000000004
2019,Cream & Crumbs,Takeaway Food Services,144.96436,-37.80506
2019,Woodside Green,Takeaway Food Services,144.96445,-37.80486
2019,Kitchen 520,Cafes and Restaurants,144.96353,-37.804840000000006
2019,The Big Mama,Cafes and Restaurants,144.96333,-37.80601
2019,Cafe Crema,Cafes and Restaurants,144.96354,-37.80559
2019,Arrow On Swanston,Accommodation,144.96354,-37.80559
2019,Coffee On Cardigan,Cafes and Restaurants,144.96396000000001,-37.80593
2019,Tam Tam,Cafes and Restaurants,144.96563999999998,-37.806740000000005
2019,The Curtin,"Pubs, Taverns and Bars",144.9657,-37.8062
2019,Chinger Biang Biang Noodle,Cafes and Restaurants,144.96535,-37.8067
2019,Hi Chong Qing Cafe & Noodle Bar,Cafes and Restaurants,144.9654,-37.806340000000006
2019,Dragonball Dumpling,Takeaway Food Services,144.96546999999998,-37.806709999999995
2019,Carlton Megabytes,Cafes and Restaurants,144.96553,-37.80672
2019,Artee Cafe,Cafes and Restaurants,144.96643999999998,-37.80567
2019,Epocha Restaurant,Cafes and Restaurants,144.96856,-37.80577
2019,Carlton Cafe,Cafes and Restaurants,144.96155,-37.785059999999994
2019,RAB Bar & Restaurant,Cafes and Restaurants,144.9542,-37.820190000000004
2019,Code 3,Cafes and Restaurants,144.95102,-37.81381
2019,Ichi Maki,Takeaway Food Services,144.95102,-37.81381
2019,Hunger Game,Cafes and Restaurants,144.9522,-37.81843
2019,Pie Face,Takeaway Food Services,144.9522,-37.81843
2019,Grill'd,Cafes and Restaurants,144.9522,-37.81843
2019,Red Rooster,Takeaway Food Services,144.9522,-37.81843
2019,In A Rush Espresso,Cafes and Restaurants,144.9522,-37.81843
2019,Grains Galore Bakery & Kebabs,Takeaway Food Services,144.9522,-37.81843
2019,Southern Asian Cuisine,Cafes and Restaurants,144.9522,-37.81843
2019,Network Public Bar & Pizzeria,"Funeral, Crematorium and Cemetery Services",144.9522,-37.81843
2019,Gaslight Project,Cafes and Restaurants,144.9522,-37.81843
2019,Velluto,Cafes and Restaurants,144.9522,-37.81843
2019,Spanish Doughnuts,Takeaway Food Services,144.9522,-37.81843
2019,Mad Mex,Cafes and Restaurants,144.9522,-37.81843
2019,Red Rooster 2,Takeaway Food Services,144.9522,-37.81843
2019,Hungry Jack's,Cafes and Restaurants,144.9522,-37.81843
2019,Theobroma Chocolate Lounge,Cafes and Restaurants,144.95056,-37.8145
2019,Hanger Cafe Spencer Street,Cafes and Restaurants,144.95056,-37.8145
2019,The Coffee Club,Cafes and Restaurants,144.95056,-37.8145
2019,Starbucks,Cafes and Restaurants,144.95056,-37.8145
2019,Pasquale,Cafes and Restaurants,144.95056,-37.8145
2019,Schnitz,Cafes and Restaurants,144.95056,-37.8145
2019,Genki Express,Takeaway Food Services,144.95056,-37.8145
2019,Michel's Pattiserie,Bakery Product Manufacturing (Non-factory based),144.95056,-37.8145
2019,Degani @ Southern Cross Station,Cafes and Restaurants,144.95056,-37.8145
2019,Subway,Takeaway Food Services,144.95056,-37.8145
2019,Hungry Jacks,Cafes and Restaurants,144.95056,-37.8145
2019,Coffee Rush,Cafes and Restaurants,144.95056,-37.8145
2019,Espresso Hub,Cafes and Restaurants,144.95307,-37.81968
2019,Cafe 198,Cafes and Restaurants,144.94494,-37.813990000000004
2019,Coffee n' all Customs House,Cafes and Restaurants,144.94538,-37.81455
2019,O-Bento,Cafes and Restaurants,144.94673999999998,-37.813829999999996
2019,Cafenatics,Cafes and Restaurants,144.94673999999998,-37.813829999999996
2019,Locker Room Cafe,Cafes and Restaurants,144.94746999999998,-37.81649
2019,Arena View Restaurant And Cafe,Cafes and Restaurants,144.94746999999998,-37.81649
2019,The Medallion Club,Cafes and Restaurants,144.94746999999998,-37.81649
2019,Peppers Docklands Hotel,Accommodation,144.94749,-37.814890000000005
2019,Bao's  Restaurant,Cafes and Restaurants,144.94749,-37.814890000000005
2019,Yummy Hut,Cafes and Restaurants,144.94749,-37.814890000000005
2019,Khaza Ghar,Cafes and Restaurants,144.94749,-37.814890000000005
2019,Cafe At 6,Cafes and Restaurants,144.94749,-37.814890000000005
2019,Mr Grazier,Cafes and Restaurants,144.94938,-37.81718
2019,Story Coffee & Food Store,Cafes and Restaurants,144.94938,-37.81718
2019,In a Rush,Cafes and Restaurants,144.94938,-37.81718
2019,90 Secondi,Cafes and Restaurants,144.94938,-37.81718
2019,De Gusto,Cafes and Restaurants,144.94736,-37.81814
2019,Kollabo,Cafes and Restaurants,144.94736,-37.81814
2019,Asian Delights Docklands,Takeaway Food Services,144.94736,-37.81814
2019,Nawabs Palace,Cafes and Restaurants,144.94736,-37.81814
2019,De Gusto - Takeaway,Takeaway Food Services,144.94736,-37.81814
2019,Nando's,Cafes and Restaurants,144.94736,-37.81814
2019,Teej Cafe,Takeaway Food Services,144.94736,-37.81814
2019,Harbour Cafe,Cafes and Restaurants,144.94736,-37.81814
2019,Koi Koi,Cafes and Restaurants,144.94736,-37.81814
2019,Pizzarium,Cafes and Restaurants,144.94736,-37.81814
2019,Espresso Alto,Cafes and Restaurants,144.94736,-37.81814
2019,Origami Sushi & Noodles,Cafes and Restaurants,144.94736,-37.81814
2019,Katsu House,Cafes and Restaurants,144.94736,-37.81814
2019,That Coffee Corner,Takeaway Food Services,144.94736,-37.81814
2019,Broadcast Cafe,Cafes and Restaurants,144.94593,-37.81581
2019,Tukk & Co,Cafes and Restaurants,144.94911000000002,-37.81792
2019,Hawkers Corner,Cafes and Restaurants,144.94911000000002,-37.81792
2019,Focaccino,Cafes and Restaurants,144.94911000000002,-37.81792
2019,Sargon,Cafes and Restaurants,144.94911000000002,-37.81792
2019,Salud Espresso Bar,Cafes and Restaurants,144.94911000000002,-37.81792
2019,Pizza Hut Docklands,Cafes and Restaurants,144.94781,-37.819179999999996
2019,Twirled Pasta Bar,Cafes and Restaurants,144.94781,-37.819179999999996
2019,De Asian Flavours,Cafes and Restaurants,144.94781,-37.819179999999996
2019,The Spice Dine,Cafes and Restaurants,144.94781,-37.819179999999996
2019,Gozleme Place,Cafes and Restaurants,144.94781,-37.819179999999996
2019,The Nixon Hotel,"Pubs, Taverns and Bars",144.94781,-37.819179999999996
2019,Nawab's Palace Dine In,Cafes and Restaurants,144.94781,-37.819179999999996
2019,Ginger Leaf Thai Restaurant,Cafes and Restaurants,144.94781,-37.819179999999996
2019,Cafe Bleu,Cafes and Restaurants,144.94781,-37.819179999999996
2019,St. Brew,Cafes and Restaurants,144.95085,-37.81951
2019,Asuka Sushi,Cafes and Restaurants,144.95023999999998,-37.818659999999994
2019,Whoop Dee Doo Cafe,Cafes and Restaurants,144.95023999999998,-37.818659999999994
2019,Hangar,Cafes and Restaurants,144.95023999999998,-37.818659999999994
2019,Cafe Saporo @ Docklands,Cafes and Restaurants,144.95023999999998,-37.818659999999994
2019,Travelodge Hotel Melbourne Docklands,Accommodation,144.95023999999998,-37.818659999999994
2019,Gokotta Kaffe,Cafes and Restaurants,144.95076,-37.821509999999996
2019,Little Bang Espresso,Takeaway Food Services,144.94933999999998,-37.82
2019,Shinsei Rice & Sushi Bar,Cafes and Restaurants,144.94933999999998,-37.82
2019,Chiara,Cafes and Restaurants,144.95113999999998,-37.820879999999995
2019,Nine Elephants Thai Restaurant,Cafes and Restaurants,144.94906,-37.81921
2019,11 Inch Pizzeria Docklands,Cafes and Restaurants,144.94906,-37.81921
2019,Love Peace Espresso,Cafes and Restaurants,144.94906,-37.81921
2019,The Hof Downtown,Cafes and Restaurants,144.94906,-37.81921
2019,Platform 28,Cafes and Restaurants,144.94983,-37.81922
2019,Long Shot,Cafes and Restaurants,144.95008,-37.82071
2019,Hudsons Coffee Collins Square,Cafes and Restaurants,144.95008,-37.82071
2019,Mr Collins,Cafes and Restaurants,144.94942,-37.82095
2019,De Mad Hatter,Cafes and Restaurants,144.94942,-37.82095
2019,Sushi & Nori,Cafes and Restaurants,144.94986,-37.821290000000005
2019,Meister,Takeaway Food Services,144.94986,-37.821290000000005
2019,Cafe La Kiss,Cafes and Restaurants,144.94861,-37.82202
2019,Sushi Wang,Cafes and Restaurants,144.94508000000002,-37.81885
2019,In A Rush 800,Cafes and Restaurants,144.94508000000002,-37.81885
2019,Watermark Docklands,"Pubs, Taverns and Bars",144.94508000000002,-37.81885
2019,Rhumba's At Nab,Cafes and Restaurants,144.94508000000002,-37.81885
2019,Tataki Noodles & Dumplings,Cafes and Restaurants,144.94508000000002,-37.81885
2019,Black Cod,Cafes and Restaurants,144.94508000000002,-37.81885
2019,Banc Cafe,Cafes and Restaurants,144.94508000000002,-37.81885
2019,The Harbour Kitchen,Catering Services,144.94508000000002,-37.81885
2019,Whitelion/Wheelly Good Coffee,Cafes and Restaurants,144.94052,-37.820029999999996
2019,Subway Vic Harbour,Takeaway Food Services,144.94312,-37.81977
2019,Pita Pit Docklands,Takeaway Food Services,144.94312,-37.81977
2019,IGG International Buffet and Bar,Cafes and Restaurants,144.94292,-37.81935
2019,VinTam's Bakery,Cafes and Restaurants,144.94292,-37.81935
2019,Squires Loft Dockland,Cafes and Restaurants,144.94397,-37.81927
2019,Southern China Style Cuisine,Cafes and Restaurants,144.94397,-37.81927
2019,Blended Beard,Cafes and Restaurants,144.94397,-37.81927
2019,Woolshed Pub,"Pubs, Taverns and Bars",144.94363,-37.8165
2019,Mill & Bakery at Central Pier,Cafes and Restaurants,144.94363,-37.8165
2019,Mama Rumaan,Cafes and Restaurants,144.94363,-37.8165
2019,Coffee Gauge,Cafes and Restaurants,144.94416,-37.820240000000005
2019,Delhi Belly,Cafes and Restaurants,144.94416,-37.820240000000005
2019,Smokestak,Cafes and Restaurants,144.94346000000002,-37.82045
2019,Indi Hots,Cafes and Restaurants,144.94346000000002,-37.82045
2019,D G Expresso,Cafes and Restaurants,144.94346000000002,-37.82045
2019,Shinsei Fish & Sushi Bar,Cafes and Restaurants,144.94346000000002,-37.82045
2019,Merchant Society,Cafes and Restaurants,144.94346000000002,-37.82045
2019,Tap 831,Cafes and Restaurants,144.94346000000002,-37.82045
2019,Kenny's Bakery Cafe,Takeaway Food Services,144.94368,-37.82092
2019,Vintams Cafe,Cafes and Restaurants,144.94368,-37.82092
2019,Pok Pok,Cafes and Restaurants,144.94562,-37.81974
2019,Caffe Bambino Docklands,Cafes and Restaurants,144.94468999999998,-37.81995
2019,Go Green Raw Foods,Cafes and Restaurants,144.94468999999998,-37.81995
2019,Signature Pho Viet,Cafes and Restaurants,144.94468999999998,-37.81995
2019,Taberu-Ya,Takeaway Food Services,144.94468999999998,-37.81995
2019,Elements Cafe,Cafes and Restaurants,144.94564,-37.82205
2019,Rhumba's At ANZ,Cafes and Restaurants,144.94564,-37.82205
2019,Volume Cafe,Cafes and Restaurants,144.94564,-37.82205
2019,In A Rush 833 Collins Street,Cafes and Restaurants,144.94564,-37.82205
2019,Koji Sushi,Cafes and Restaurants,144.94564,-37.82205
2019,The Groove Train,Cafes and Restaurants,144.94564,-37.82205
2019,Caffe Esc,Cafes and Restaurants,144.94564,-37.82205
2019,365 Foodstore Docklands,Cafes and Restaurants,144.94564,-37.82205
2019,Code Black,Cafes and Restaurants,144.94583,-37.82104
2019,Street Kitchen Co,Cafes and Restaurants,144.94583,-37.82104
2019,A25,Cafes and Restaurants,144.94583,-37.82104
2019,Panda Loves Fish,Cafes and Restaurants,144.94583,-37.82104
2019,Chia Chia,Cafes and Restaurants,144.94502,-37.82101
2019,Le-Nguyen Pho & Bakery Cafe,Cafes and Restaurants,144.94502,-37.82101
2019,Humble Heroes,Cafes and Restaurants,144.94502,-37.82101
2019,Hot Kebab,Takeaway Food Services,144.94218,-37.81981
2019,Saluministi,Cafes and Restaurants,144.94138999999998,-37.82006
2019,Wawa Chocolatier,Other Specialised Food Retailing,144.94138999999998,-37.82006
2019,Banoi,Cafes and Restaurants,144.94506,-37.8197
2019,Cafernatics Forte,Cafes and Restaurants,144.94506,-37.8197
2019,Little Bean Dockside,Cafes and Restaurants,144.94454,-37.82095
2019,Burger Edge,Cafes and Restaurants,144.94454,-37.82095
2019,Sushi Bay In Docklands,Cafes and Restaurants,144.94454,-37.82095
2019,Billy Barista,Cafes and Restaurants,144.94232,-37.82059
2019,Oscar's Table,Cafes and Restaurants,144.94123000000002,-37.81459
2019,Bhoj On Docklands,Cafes and Restaurants,144.94123000000002,-37.81459
2019,Renzo's Bar Cafe Italiano,Cafes and Restaurants,144.94123000000002,-37.81459
2019,Achelya,Cafes and Restaurants,144.94217,-37.81436
2019,Solidaire Victoria,Cafes and Restaurants,144.94217,-37.81436
2019,B Club Cafe,Cafes and Restaurants,144.94066999999998,-37.81492
2019,Bopha Devi Docklands,Cafes and Restaurants,144.94066999999998,-37.81492
2019,Steakhouse 66,Cafes and Restaurants,144.94066999999998,-37.81492
2019,Berth Restaurant,Cafes and Restaurants,144.94183999999998,-37.81515
2019,All Smiles,Catering Services,144.94142,-37.81535
2019,Cargo Cafe & Bar,Cafes and Restaurants,144.94142,-37.81535
2019,Fish Bar,Cafes and Restaurants,144.94275,-37.81473
2019,The Conder Restaurant,Cafes and Restaurants,144.9437,-37.81381
2019,Docklands Lotus Restaurant,Cafes and Restaurants,144.9437,-37.81381
2019,Aussie Steak N Burger,Cafes and Restaurants,144.9437,-37.81381
2019,Newquay Buffet and Bar,Cafes and Restaurants,144.9437,-37.81381
2019,Waterfront Seafood Hot Pot,Cafes and Restaurants,144.93921,-37.81504
2019,Waterfront Venues Melbourne,Other Administrative Services n.e.c.,144.93921,-37.81504
2019,Almina,Cafes and Restaurants,144.93921,-37.81504
2019,The Coffee Shed Cafe,Takeaway Food Services,144.93921,-37.81504
2019,Four Points By Sheraton Melbourne Docklands,Accommodation,144.93829,-37.815459999999995
2019,Docklands Pizzaria,Cafes and Restaurants,144.9402,-37.81429
2019,Aree Thai,Cafes and Restaurants,144.9402,-37.81429
2019,Replay cafe,Cafes and Restaurants,144.9402,-37.81429
2019,Capri At The Quays Cafe,Cafes and Restaurants,144.94299999999998,-37.813559999999995
2019,Billy's District,Cafes and Restaurants,144.93776,-37.81317
2019,Gozleme King,Cafes and Restaurants,144.93776,-37.81317
2019,Le Cirque Fine Foods,Cafes and Restaurants,144.93776,-37.81317
2019,Old Man Pho,Cafes and Restaurants,144.93776,-37.81317
2019,Gold Leaf Harbour View Restaurant Pty Ltd,Cafes and Restaurants,144.93776,-37.81317
2019,Gelatoria On the Docks,Takeaway Food Services,144.93776,-37.81317
2019,The Coffee Club Waterfront City,Cafes and Restaurants,144.93776,-37.81317
2019,Sakura Sushi Bar,Cafes and Restaurants,144.93776,-37.81317
2019,KFC,Takeaway Food Services,144.93776,-37.81317
2019,Igloo Cafe & St Moritz Bar,Cafes and Restaurants,144.93565,-37.81214
2019,Humble Cafe,Cafes and Restaurants,144.94186000000002,-37.81286
2019,Cold Rock Docklands,Takeaway Food Services,144.93761,-37.811890000000005
2019,Boost Juice Waterfront City,Takeaway Food Services,144.93761,-37.811890000000005
2019,Cafe Bourgeois,Cafes and Restaurants,144.9412,-37.81308
2019,Sea on Quay,Cafes and Restaurants,144.95247,-37.82287
2019,Zahra Jabriye,Cafes and Restaurants,144.95247,-37.82287
2019,Bababoi,Cafes and Restaurants,144.95247,-37.82287
2019,Pud Thai Vs Pho,Cafes and Restaurants,144.95247,-37.82287
2019,Crown Plaza,Accommodation,144.95501000000002,-37.82267
2019,The Wharf Hotel,"Pubs, Taverns and Bars",144.95354,-37.82257
2019,Byblos Bar & Restaurant,Cafes and Restaurants,144.95354,-37.82257
2019,Yarra Dragon,Cafes and Restaurants,144.95354,-37.82257
2019,Jamps Cafe,Cafes and Restaurants,144.95354,-37.82257
2019,Riverside Teppanyaki,Cafes and Restaurants,144.95354,-37.82257
2019,Man Mo @ Wtc,Cafes and Restaurants,144.95354,-37.82257
2019,Baraonda,Takeaway Food Services,144.95354,-37.82257
2019,Degani Bakery Cafe,Cafes and Restaurants,144.95354,-37.82257
2019,Hooks @ The Yarra,Cafes and Restaurants,144.94748,-37.82483
2019,Sassone By The Riverside,Cafes and Restaurants,144.94644,-37.82486
2019,Urban Hub,Supermarket and Grocery Stores,144.94122,-37.82356
2019,Pizze Societe,Takeaway Food Services,144.94122,-37.82356
2019,Jasmin 1 Melbourne,Cafes and Restaurants,144.9432,-37.8243
2019,The Espressonist,Cafes and Restaurants,144.9432,-37.8243
2019,Mad Duck Cafe,Cafes and Restaurants,144.9432,-37.8243
2019,The Catholic Leadship Centre,Religious Services,144.99056000000002,-37.81058
2019,East Melbourne General Store,Supermarket and Grocery Stores,144.98871,-37.814820000000005
2019,George Street Cafe,Cafes and Restaurants,144.98818,-37.81576
2019,The Tippier & Co,"Pubs, Taverns and Bars",144.98825,-37.816390000000006
2019,Espresso Extraction,Takeaway Food Services,144.98559,-37.81619
2019,Il Duca Restaurant,Cafes and Restaurants,144.98559,-37.81619
2019,The Grey Smith,Cafes and Restaurants,144.98596,-37.81622
2019,Tadka Hut Indian Cuisine,Cafes and Restaurants,144.98731,-37.81635
2019,Nikko Sushi Noodle,Takeaway Food Services,144.98737,-37.816359999999996
2019,Geppetto Trattoria,Cafes and Restaurants,144.98743000000002,-37.816359999999996
2019,Hard Pressed,Cafes and Restaurants,144.98755,-37.81638
2019,Jolimont Cafe,Cafes and Restaurants,144.98763,-37.816390000000006
2019,Comfort Hotel East Melbourne,Accommodation,144.98818,-37.81047
2019,Square & Compass,Cafes and Restaurants,144.98412,-37.809779999999996
2019,Gourmet Pizza Bar,Cafes and Restaurants,144.98561999999998,-37.81005
2019,Grocery Bar East Melbourne,Cafes and Restaurants,144.98561999999998,-37.81005
2019,Kiwi Tribeca Fish Burger Bar,Takeaway Food Services,144.98561999999998,-37.81005
2019,Freeo's,Cafes and Restaurants,144.98418999999998,-37.81108
2019,Zouki Cafe,Cafes and Restaurants,144.9841,-37.81228
2019,Grandpa Giuseppe,Cafes and Restaurants,144.9841,-37.81228
2019,Magnolia Court Boutique Hotel,Accommodation,144.9853,-37.81337
2019,Hotel Pullman Melbourne On The Park,Accommodation,144.9835,-37.81582
2019,Da Bruno Ristorante Pizza,Cafes and Restaurants,144.9843,-37.81584
2019,Two Fat Indians,Cafes and Restaurants,144.98451,-37.815940000000005
2019,My Sushi Japanese Cafe,Cafes and Restaurants,144.98483000000002,-37.81609
2019,Laurent - Boulangerie Patisserie,Cafes and Restaurants,144.98483000000002,-37.81609
2019,Charlie Cox,Cafes and Restaurants,144.98483000000002,-37.81609
2019,KereKere Green,Cafes and Restaurants,144.98046000000002,-37.81296
2019,Hudsons Coffee Freemasons,Cafes and Restaurants,144.98225,-37.809459999999994
2019,Degani @ East Melbourne,Cafes and Restaurants,144.9787,-37.80964
2019,Zio's Ristorante,Cafes and Restaurants,144.9787,-37.80938
2019,Solah,Cafes and Restaurants,144.97998,-37.80919
2019,The Four,Takeaway Food Services,144.97445,-37.80901
2019,Albert St Deli,Cafes and Restaurants,144.97468,-37.80907
2019,Sir Osborn,Cafes and Restaurants,144.97352,-37.80899
2019,Cafe Ecco,Cafes and Restaurants,144.97361999999998,-37.8085
2019,East Side Story Bar + Cafe,Cafes and Restaurants,144.97489,-37.80863
2019,Victoria's Secret Bar & Cafe,Takeaway Food Services,144.97429,-37.80856
2019,Zouki Cafe Eye & Ear Hospital,Cafes and Restaurants,144.97626,-37.80887
2019,Cafe Lansdowne,Cafes and Restaurants,144.97812,-37.80904
2019,Basement Espresso,Cafes and Restaurants,144.97789,-37.80895
2019,Strangers Corridor,Cafes and Restaurants,144.97415,-37.81086
2019,Zouki on the Park,Cafes and Restaurants,144.97721,-37.8115
2019,Mr Tod.,Takeaway Food Services,144.97575,-37.81162
2019,Mr Tod,Cafes and Restaurants,144.97575,-37.81162
2019,Park Hyatt Melbourne,Accommodation,144.97651000000002,-37.81131
2019,Treasury Cafe,Cafes and Restaurants,144.97561000000002,-37.81282
2019,Mantra On Jolimont / Boundary Line Bar,Accommodation,144.97828,-37.81795
2019,Mugs Alley,Cafes and Restaurants,144.97588000000002,-37.81643
2019,Aggies Cafe Bar Restaurant,Cafes and Restaurants,144.97998,-37.81681
2019,Spotless Services,Cafes and Restaurants,144.98316,-37.82
2019,Pho Flinders Express,Cafes and Restaurants,144.96461000000002,-37.818059999999996
2019,Pepperoni's,Cafes and Restaurants,144.96455,-37.81793
2019,Hella Good,Takeaway Food Services,144.96455,-37.81793
2019,McDonalds,Cafes and Restaurants,144.9645,-37.81783
2019,The Joint Bar,"Pubs, Taverns and Bars",144.96433000000002,-37.81742
2019,Mad Mex Flinders Lane,Cafes and Restaurants,144.96433000000002,-37.81742
2019,Randy Dragon,"Pubs, Taverns and Bars",144.96385,-37.817640000000004
2019,Brewton Coffee Roasters,Cafes and Restaurants,144.96348999999998,-37.81776
2019,Pronto on Flinders,Cafes and Restaurants,144.96323,-37.81785
2019,Cafe Del Corso,Cafes and Restaurants,144.96274,-37.817859999999996
2019,Cafe Leon,Takeaway Food Services,144.96271000000002,-37.81859
2019,Marquitos Cafe,Cafes and Restaurants,144.96271000000002,-37.81859
2019,Straits Cafe,Cafes and Restaurants,144.96358,-37.81819
2019,Rachel's Rooms,Cafes and Restaurants,144.96403,-37.81807
2019,Kimchi Tray,Cafes and Restaurants,144.96435,-37.81807
2019,Joyci Sushi,Takeaway Food Services,144.96435,-37.81807
2019,Cafe 34,Cafes and Restaurants,144.96244,-37.81799
2019,Maha Restaurant,Cafes and Restaurants,144.96253000000002,-37.81819
2019,Bond Street Kitchen,Cafes and Restaurants,144.96258,-37.8183
2019,Paper Tiger Espresso Bar,Takeaway Food Services,144.96263000000002,-37.81841
2019,Migo's,Cafes and Restaurants,144.96493999999998,-37.81718
2019,Om Vegetarian,Cafes and Restaurants,144.96488,-37.8173
2019,Melbourne Halal Food Centre,Takeaway Food Services,144.96488,-37.8173
2019,Metro Baguette,Takeaway Food Services,144.96509,-37.81766
2019,Walker's Doughnuts,Takeaway Food Services,144.96509,-37.81766
2019,Sushi Hub Elizabeth Street,Takeaway Food Services,144.96509,-37.81766
2019,Roule Galette,Cafes and Restaurants,144.96643,-37.81682
2019,Heart Baker Bun Mee,Takeaway Food Services,144.9663,-37.81686
2019,Dukes Coffee Roasters,Cafes and Restaurants,144.96617,-37.816990000000004
2019,The Journal Canteen,Cafes and Restaurants,144.9659,-37.81706
2019,Cafe Andiamo,Cafes and Restaurants,144.9659,-37.81706
2019,The Organic Food & Wine Deli,Other Specialised Food Retailing,144.9659,-37.81706
2019,Mock Turtle Degraves,Cafes and Restaurants,144.9659,-37.81706
2019,Xpressomondo,Cafes and Restaurants,144.96548,-37.81711
2019,Degraves Espresso,Cafes and Restaurants,144.96548,-37.81711
2019,Seedling Cafe,Takeaway Food Services,144.96548,-37.81711
2019,Jing Jai Thai,Cafes and Restaurants,144.96548,-37.81711
2019,RMB Cafe,Cafes and Restaurants,144.96548,-37.81711
2019,The Quarter,Cafes and Restaurants,144.96548,-37.81711
2019,The Mill House Bar,"Pubs, Taverns and Bars",144.9653,-37.817240000000005
2019,Platform 270,Cafes and Restaurants,144.96535,-37.81769
2019,Yarra Sushi,Takeaway Food Services,144.96563,-37.817609999999995
2019,Il Tempo 2 Pasta,Cafes and Restaurants,144.96563,-37.817609999999995
2019,Spanish Doughnuts El Churro Cafe,Cafes and Restaurants,144.96563,-37.817609999999995
2019,United Backpackers,Accommodation,144.966,-37.81752
2019,Metro Burgers,Takeaway Food Services,144.966,-37.81752
2019,II Tempo Bar,Cafes and Restaurants,144.966,-37.81752
2019,Little Cupcakes,Bakery Product Manufacturing (Non-factory based),144.966,-37.81752
2019,Flora Indian Restaurant & Cafe,Cafes and Restaurants,144.96636,-37.81736
2019,Young & Jacksons,"Pubs, Taverns and Bars",144.96702,-37.81736
2019,Hungry Jack's Pty Ltd,Cafes and Restaurants, , 
2019,Cathedral Coffee,Takeaway Food Services,144.9667,-37.81674
2019,Swanston Halal Food Centre,Cafes and Restaurants,144.9667,-37.81674
2019,Kisume Pty Ltd,Cafes and Restaurants,144.96868,-37.816179999999996
2019,Ezard,Cafes and Restaurants,144.96838,-37.816359999999996
2019,The Adelphi Hotel,Accommodation,144.96838,-37.816359999999996
2019,Om Nom,Cafes and Restaurants,144.96838,-37.816359999999996
2019,Wheelly Good Coffee,Cafes and Restaurants,144.96813999999998,-37.81674
2019,Movida Next Door,Cafes and Restaurants,144.96909,-37.81671
2019,Movida,Cafes and Restaurants,144.96909,-37.81671
2019,Ikkoryu Fukuoka Ramen,Cafes and Restaurants,144.96925,-37.81599
2019,Chapter House Coffee,Takeaway Food Services,144.96768,-37.816790000000005
2019,Strozzi Restaurant,Cafes and Restaurants,144.96327,-37.81705
2019,Huxtaburger,Takeaway Food Services,144.96278999999998,-37.81729
2019,Little Bean Bambini,Takeaway Food Services,144.96278999999998,-37.81729
2019,Roll'D,Takeaway Food Services,144.96278999999998,-37.81729
2019,Vapiano,Cafes and Restaurants,144.96278999999998,-37.81729
2019,Cafe Mesh,Takeaway Food Services,144.96278999999998,-37.81729
2019,Crema Espresso @ 357,Cafes and Restaurants,144.96278999999998,-37.81729
2019,Cafenatics 367,Cafes and Restaurants,144.96244,-37.81728
2019,Falcon 367,Cafes and Restaurants,144.96244,-37.81728
2019,Breadtop,Bakery Product Manufacturing (Non-factory based),144.96413,-37.81697
2019,Shuji Sushi,Cafes and Restaurants,144.96219,-37.81759
2019,Midtown Cafe & Catering,Cafes and Restaurants,144.96382,-37.816629999999996
2019,Souk Kitchen & Bar,Cafes and Restaurants,144.96366,-37.81693
2019,Mensousai Mugen,Cafes and Restaurants,144.96366,-37.81693
2019,Maa Kin,Cafes and Restaurants,144.96368,-37.81727
2019,Yum Yum Dumplings,Cafes and Restaurants,144.96392,-37.817190000000004
2019,Robot Sushi & Bar,Cafes and Restaurants,144.96392,-37.817190000000004
2019,Northeast China Family,Cafes and Restaurants,144.96392,-37.817190000000004
2019,Bistro Du Peuple,Cafes and Restaurants,144.96392,-37.817190000000004
2019,Cuff Food & Wine,Cafes and Restaurants,144.96392,-37.817190000000004
2019,Cafe Vicolino,Cafes and Restaurants,144.96546999999998,-37.81664
2019,Eliana Lulu,Cafes and Restaurants,144.96546999999998,-37.81664
2019,Shandong Mama Mini,Takeaway Food Services,144.96546999999998,-37.81664
2019,Eurolane Cafe,Cafes and Restaurants,144.9656,-37.8166
2019,Centro Espresso Caffe,Takeaway Food Services,144.9656,-37.8166
2019,Cafe Issus,Cafes and Restaurants,144.9656,-37.8166
2019,Yen Sushi Noodle,Takeaway Food Services,144.9656,-37.8166
2019,The Soup Place,Takeaway Food Services,144.9656,-37.8166
2019,Hell's Kitchen,"Pubs, Taverns and Bars",144.9656,-37.8166
2019,Aix Cafe Creperie Salon,Cafes and Restaurants,144.9656,-37.8166
2019,Jungle Juice Bar,Takeaway Food Services,144.9656,-37.8166
2019,3 Lt Monkeys,Takeaway Food Services,144.9656,-37.8166
2019,Tako Sushi Japanses Cafe,Cafes and Restaurants,144.96633,-37.81584
2019,Happy Lemon Melbourne,Takeaway Food Services,144.96633,-37.81584
2019,Three Drops Espresso,Cafes and Restaurants,144.96633,-37.81584
2019,Ganache Chocolate Lounge,Cafes and Restaurants,144.96583,-37.81606
2019,Brunetti City,Cafes and Restaurants,144.96565,-37.81635
2019,Whirl'd Juice,Takeaway Food Services,144.96534,-37.8162
2019,Lindt Chocolat Cafe,Cafes and Restaurants,144.96498,-37.81655
2019,Oda Sushi,Cafes and Restaurants,144.96596,-37.81649
2019,Laneway Greens,Takeaway Food Services,144.96596,-37.81649
2019,La Kuaizi,Cafes and Restaurants,144.9662,-37.81642
2019,Maccaroni Trattoria Italiana,Cafes and Restaurants,144.9661,-37.816
2019,Lello Pasta Bar,Cafes and Restaurants,144.96876,-37.81545
2019,Supernormal,Cafes and Restaurants,144.96831,-37.81566
2019,Box Seafood Restaurant,Cafes and Restaurants,144.96771,-37.81547
2019,Allegro Restaurant,Cafes and Restaurants,144.96743,-37.81581
2019,Lobby Lounge,Cafes and Restaurants,144.96743,-37.81581
2019,Cocoa Bean Cafe,Cafes and Restaurants,144.96171999999999,-37.81629
2019,Poked,Takeaway Food Services,144.96217,-37.81617
2019,Billys Lane,Cafes and Restaurants,144.96217,-37.81617
2019,Sushi & Nori Melbourne,Cafes and Restaurants,144.96217,-37.81617
2019,PappaRich 360 Collins,Cafes and Restaurants,144.96217,-37.81617
2019,8bit 360,Cafes and Restaurants,144.96217,-37.81617
2019,Makan,Cafes and Restaurants,144.96217,-37.81617
2019,Earl Canteen 360 Collins,Cafes and Restaurants,144.96217,-37.81617
2019,Sambal Kampung,Cafes and Restaurants,144.96268999999998,-37.81602
2019,Cafenatics Equitable Place,Cafes and Restaurants,144.96341,-37.816109999999995
2019,Brown Bagels,Takeaway Food Services,144.96341,-37.816109999999995
2019,Sacred Alley Espresso Bar,Cafes and Restaurants,144.9635,-37.81592
2019,Betty's Burgers and Concrete Co,Cafes and Restaurants,144.9635,-37.81592
2019,This Side of Paradise,Cafes and Restaurants,144.9635,-37.81592
2019,Healthy Sushi Melbourne,Cafes and Restaurants,144.9633,-37.81558
2019,Heresy Coffee,Takeaway Food Services,144.9633,-37.81558
2019,Blahnik,Cafes and Restaurants,144.9633,-37.81558
2019,Oh Banh Mi,Takeaway Food Services,144.9633,-37.81558
2019,Industry Beans,Cafes and Restaurants,144.9633,-37.81558
2019,Pentolina,Cafes and Restaurants,144.96244,-37.81585
2019,Dodee Paidang Thai Bar And Cafe,Cafes and Restaurants,144.963,-37.8157
2019,B'Cos Brazilian Kitchen And Bar,Cafes and Restaurants,144.963,-37.8157
2019,11 Inch Pizza,Takeaway Food Services,144.963,-37.8157
2019,Fugazza,Cafes and Restaurants,144.963,-37.8157
2019,Nashi,Takeaway Food Services,144.963,-37.8157
2019,Uburger,Takeaway Food Services,144.963,-37.8157
2019,Viet St,Takeaway Food Services,144.963,-37.8157
2019,Sushi Hut,Takeaway Food Services,144.963,-37.8157
2019,Colori D'Italia,Cafes and Restaurants,144.96281000000002,-37.81582
2019,Kaikey's Lane,Cafes and Restaurants,144.96446,-37.81528
2019,Barbarella Gelato & Wine,Cafes and Restaurants,144.96435,-37.815529999999995
2019,Caffe Duomo,Cafes and Restaurants,144.96435,-37.815529999999995
2019,Hopetoun Tea Rooms,Cafes and Restaurants,144.96435,-37.815529999999995
2019,The Charles Dickens Tavern,"Pubs, Taverns and Bars",144.96435,-37.815529999999995
2019,Burger Project St. Collins Lane,Cafes and Restaurants,144.96489,-37.81538
2019,Royal St Collins,Cafes and Restaurants,144.96489,-37.81538
2019,Novotel Melbourne On Collins,Accommodation,144.96489,-37.81538
2019,Caffe e Torta Espresso Bar,Cafes and Restaurants,144.96489,-37.81538
2019,Think Asia,Cafes and Restaurants,144.96489,-37.81538
2019,Papadam,Cafes and Restaurants,144.96489,-37.81538
2019,70 Grams Pizza Coffee Kitchen,Cafes and Restaurants,144.96489,-37.81538
2019,Haberdasher Cafe,Cafes and Restaurants,144.96489,-37.81538
2019,Dymocks,Newspaper and Book Retailing,144.96565,-37.81542
2019,Mag Nation Pty Ltd,Newspaper and Book Retailing,144.96424,-37.81585
2019,Hudsons Elizabeth Street,Cafes and Restaurants,144.96419,-37.815909999999995
2019,Polepole Bar,"Pubs, Taverns and Bars",144.9656,-37.81483
2019,The Alley Edition,Takeaway Food Services,144.96523,-37.81507
2019,Princes Pies,Takeaway Food Services,144.96523,-37.81507
2019,Caffe e Biscotti,Cafes and Restaurants,144.96423000000001,-37.815290000000005
2019,Cafe Segovia,Cafes and Restaurants,144.96423000000001,-37.815290000000005
2019,Dinkum Pies,Cafes and Restaurants,144.96423000000001,-37.815290000000005
2019,Brown Sugar Cafe,Cafes and Restaurants,144.96423000000001,-37.815290000000005
2019,Chatime,Takeaway Food Services,144.9661,-37.815290000000005
2019,1932 Cafe & Restaurant,Cafes and Restaurants,144.9661,-37.815290000000005
2019,Switchboard Barista,Cafes and Restaurants,144.9661,-37.815290000000005
2019,Thai Viet,Cafes and Restaurants,144.96579,-37.81507
2019,30ml Coffee,Cafes and Restaurants,144.96579,-37.81507
2019,Crossways Food For Life,Cafes and Restaurants,144.96589,-37.81483
2019,Bistrot D'Orsay,Cafes and Restaurants,144.96728000000002,-37.81485
2019,Teppanyaki Inn,Cafes and Restaurants,144.96743999999998,-37.81478
2019,Verandah Cafe,Takeaway Food Services,144.96771,-37.81474
2019,The George on Collins,"Pubs, Taverns and Bars",144.96785,-37.8145
2019,Meatmaiden,Cafes and Restaurants,144.96785,-37.8145
2019,Alice's Thai Restaurant,Cafes and Restaurants,144.96708,-37.81446
2019,The Victoria Hotel Melbourne,Accommodation,144.96708,-37.81446
2019,In a Rush 150 Collins,Cafes and Restaurants,144.96818000000002,-37.81418
2019,Gold Drops - Coffee & Tea,Takeaway Food Services,144.96818000000002,-37.81418
2019,Arbory Bar and Eatery,Cafes and Restaurants,144.96583,-37.818690000000004
2019,Green Light Flinders,Cafes and Restaurants,144.96583,-37.818690000000004
2019,Pho Flinders,Cafes and Restaurants,144.96583,-37.818690000000004
2019,Famish'd,Cafes and Restaurants,144.96292,-37.81493
2019,Kape & Co,Takeaway Food Services,144.96292,-37.81493
2019,Nosh,Cafes and Restaurants,144.96292,-37.81493
2019,Oli & Levi,Cafes and Restaurants,144.96292,-37.81493
2019,Marroo,Cafes and Restaurants,144.96153,-37.81556
2019,In a Rush Espresso,Cafes and Restaurants,144.96174,-37.81561
2019,Oriental Tea House,Cafes and Restaurants,144.96200000000002,-37.815490000000004
2019,Trattoria Emilia,Cafes and Restaurants,144.96264,-37.81528
2019,Guhng,Cafes and Restaurants,144.96161999999998,-37.81534
2019,Red Spice Road,Cafes and Restaurants,144.96148,-37.81524
2019,Tejas Modern Indian,Cafes and Restaurants,144.96182,-37.81515
2019,The Pancake Parlour,Cafes and Restaurants,144.96522,-37.814209999999996
2019,Sensory Lab,Cafes and Restaurants,144.9649,-37.8144
2019,Cultured Salad,Cafes and Restaurants,144.96453,-37.81446
2019,Ghislaine,Takeaway Food Services,144.96453,-37.81446
2019,Grasshoppers Feast/Grab a Yabby,Cafes and Restaurants,144.96453,-37.81446
2019,Riva Cafe Bar,Cafes and Restaurants,144.96453,-37.81446
2019,Sushi Monger,Cafes and Restaurants,144.96453,-37.81446
2019,Causeway Inn On The Mall,Accommodation,144.96416000000002,-37.81432
2019,Koko Black,Other Specialised Food Retailing,144.96398,-37.81438
2019,Caffe E Torta,Cafes and Restaurants,144.96398,-37.81438
2019,Pho 7,Cafes and Restaurants,144.96374,-37.814840000000004
2019,Gourmet Curry Hut,Cafes and Restaurants,144.96401,-37.814890000000005
2019,Chuckle Park,"Pubs, Taverns and Bars",144.96401,-37.814890000000005
2019,New Guernica,"Pubs, Taverns and Bars",144.96401,-37.814890000000005
2019,Chokolait,Cafes and Restaurants,144.96401,-37.814890000000005
2019,Chuckle Deli,Takeaway Food Services,144.96401,-37.814890000000005
2019,Moonshine Studio,Takeaway Food Services,144.96401,-37.814890000000005
2019,Ministry Of Curry,Takeaway Food Services,144.96401,-37.814890000000005
2019,Union Kiosk,Takeaway Food Services,144.96435,-37.81473
2019,Gordons Cafe & Bar,Cafes and Restaurants,144.96435,-37.81473
2019,Cafe Insieme,Cafes and Restaurants,144.96435,-37.81473
2019,Laurent Boulangerie Patisserie,Cafes and Restaurants,144.96435,-37.81473
2019,Gopal's Vegetarian Restaurant,Cafes and Restaurants,144.96573,-37.814409999999995
2019,Rozzi's,Cafes and Restaurants,144.96558000000002,-37.81408
2019,Simpsons Chips & Burgers,Takeaway Food Services,144.96797,-37.813109999999995
2019,4 Fingers Crispy Chicken,Cafes and Restaurants,144.96776,-37.81317
2019,The Carlton Hotel,"Pubs, Taverns and Bars",144.96765,-37.8132
2019,Treasure Star,"Pubs, Taverns and Bars",144.9673,-37.81328
2019,Drumplings,Cafes and Restaurants,144.96692,-37.81341
2019,Coco Fresh Tea & Juice,Takeaway Food Services,144.96662,-37.81374
2019,Nusantara,Takeaway Food Services,144.96662,-37.81374
2019,Warra Warra,Cafes and Restaurants,144.96662,-37.81374
2019,Salero Kito Padang Melbourne,Cafes and Restaurants,144.96662,-37.81374
2019,VB Rolls,Takeaway Food Services,144.96662,-37.81374
2019,Momo Station,Cafes and Restaurants,144.96662,-37.81374
2019,Wagyu Fun,Takeaway Food Services,144.96662,-37.81374
2019,Cafe Soho,Takeaway Food Services,144.96662,-37.81374
2019,Stellini Bar,Cafes and Restaurants,144.96715,-37.8139
2019,Sarti Restaurant & Bar,Cafes and Restaurants,144.96758,-37.81391
2019,Il Bacaro Cucina E Bar,Cafes and Restaurants,144.96787,-37.81377
2019,Portland Hotel,"Pubs, Taverns and Bars",144.9682,-37.81366
2019,QT Melbourne,Accommodation,144.96784,-37.81343
2019,Sushi Sushi,Cafes and Restaurants,144.96622,-37.81413
2019,Tsujiri,Takeaway Food Services,144.9662,-37.81418
2019,L'Incontro,Cafes and Restaurants,144.96629,-37.81431
2019,Bar Ampere,"Pubs, Taverns and Bars",144.96743999999998,-37.81355
2019,Neapoli Wine Bar,Cafes and Restaurants,144.96743999999998,-37.81355
2019,Corner & Bench,Cafes and Restaurants,144.96148,-37.8144
2019,Curry Point,Takeaway Food Services,144.96174,-37.81422
2019,McDonald's Bourke St West,Cafes and Restaurants,144.96174,-37.81422
2019,Ohsso,Cafes and Restaurants,144.96174,-37.81422
2019,La Belle Miette,Takeaway Food Services,144.96174,-37.81422
2019,La Petite Creperie,Cafes and Restaurants,144.96174,-37.81422
2019,Shanghai Street on Bourke,Cafes and Restaurants,144.96267,-37.81412
2019,Udon Yasan,Cafes and Restaurants,144.96271000000002,-37.81389
2019,Tropicana Juice Bar,Cafes and Restaurants,144.96255,-37.81354
2019,Captains of Industry,Cafes and Restaurants,144.96255,-37.81354
2019,Rice Paper Sister,Cafes and Restaurants,144.96141,-37.81429
2019,Campari House,Cafes and Restaurants,144.96131,-37.81409
2019,Big Boy BBQ,Cafes and Restaurants,144.96126999999998,-37.813990000000004
2019,Affogato,Cafes and Restaurants,144.96126999999998,-37.813990000000004
2019,Brother Baba Budan,Cafes and Restaurants,144.96217,-37.81353
2019,Tipo 00,Cafes and Restaurants,144.96199,-37.813590000000005
2019,Osteria Ilaria,Cafes and Restaurants,144.96198,-37.813759999999995
2019,Dex2rose Nitrogen Gelato,Cafes and Restaurants,144.9616,-37.8138
2019,Bon,Cafes and Restaurants,144.96139,-37.8138
2019,Sushi Aru,Takeaway Food Services,144.9612,-37.81385
2019,Triim,Cafes and Restaurants,144.9612,-37.81385
2019,Larder Section,Cafes and Restaurants,144.9612,-37.81385
2019,Palermo,Cafes and Restaurants,144.96103,-37.814029999999995
2019,Homi Noodle Bar,Cafes and Restaurants,144.96068,-37.814029999999995
2019,Workshop Brothers,Takeaway Food Services,144.96068,-37.814029999999995
2019,Nirankar Restaurant,Cafes and Restaurants,144.96077,-37.81429
2019,Manchester Press,Cafes and Restaurants,144.96213,-37.81388
2019,The Little Mule Cafe,Cafes and Restaurants,144.96239,-37.8138
2019,Portello Rosso,Cafes and Restaurants,144.96185,-37.81381
2019,Ca De Vin,Cafes and Restaurants,144.96329,-37.8136
2019,Mama's Buoi,Cafes and Restaurants,144.96329,-37.8136
2019,Federal Coffee Palace,Cafes and Restaurants,144.96329,-37.8136
2019,Brunetti Myer Melbourne,Cafes and Restaurants,144.96383,-37.81345
2019,The Salon,Cafes and Restaurants,144.96383,-37.81345
2019,The Louden Kitchen & Grill,Cafes and Restaurants,144.96466,-37.8129
2019,Mercure Welcome Hotel,Accommodation,144.96466,-37.8129
2019,Soul Cafe,Cafes and Restaurants,144.96501,-37.8131
2019,Sam Sam,Cafes and Restaurants,144.96504,-37.8129
2019,Yoyogi Japanese Cafe,Cafes and Restaurants,144.96501,-37.81285
2019,Red Piggy,Cafes and Restaurants,144.96496000000002,-37.81272
2019,Da Hu the Great Tiger,Cafes and Restaurants,144.96496000000002,-37.81272
2019,Mister Close,Cafes and Restaurants,144.96585,-37.81295
2019,Melbourne Dae Jang Geum Korean BBQ,Cafes and Restaurants,144.96585,-37.81295
2019,Pad Thai,Cafes and Restaurants,144.96585,-37.81295
2019,Li Ji Matalang,Cafes and Restaurants,144.96628,-37.812740000000005
2019,Gloria Jean's Coffees,Cafes and Restaurants,144.96628,-37.812740000000005
2019,The Grand BBQ,Cafes and Restaurants,144.96628,-37.812740000000005
2019,Spicy Fish Restaurant,Cafes and Restaurants,144.96628,-37.812740000000005
2019,Dragon Boat,Cafes and Restaurants,144.96687,-37.812670000000004
2019,Blackball at Chinatown,Cafes and Restaurants,144.96687,-37.812670000000004
2019,China Chilli,Cafes and Restaurants,144.96687,-37.812670000000004
2019,House of Delight,Cafes and Restaurants,144.96687,-37.812670000000004
2019,Tim Ho Wan,Cafes and Restaurants,144.96687,-37.812670000000004
2019,Mrs Zan's Kitchen,Cafes and Restaurants,144.96687,-37.812670000000004
2019,China Red,Cafes and Restaurants,144.96687,-37.812670000000004
2019,Hot Spicy Stick,Cafes and Restaurants,144.96718,-37.81265
2019,Nong Tang Noodle House,Cafes and Restaurants,144.96726999999998,-37.81242
2019,Two Peck Crispy Chicken,Takeaway Food Services,144.96726999999998,-37.81242
2019,Mr Ramen San,Cafes and Restaurants,144.96726999999998,-37.81242
2019,Shandong Mama Dumplings,Cafes and Restaurants,144.96726999999998,-37.81242
2019,Kaneda Japanese Restaurant,Cafes and Restaurants,144.96726999999998,-37.81242
2019,Sichuan Dining Room,Cafes and Restaurants,144.96726999999998,-37.81242
2019,Yokocho,Cafes and Restaurants,144.96726999999998,-37.81242
2019,Wagaya Japanese Restaurant,Cafes and Restaurants,144.96726999999998,-37.81242
2019,Sushi Hotaru,Cafes and Restaurants,144.96726999999998,-37.81242
2019,Heart Of Tea,Takeaway Food Services,144.96726999999998,-37.81242
2019,The Lab - Nitrogen Gelato,Takeaway Food Services,144.96761,-37.8127
2019,Westlake Restaurant,Cafes and Restaurants,144.96695,-37.81219
2019,Dessert Story,Cafes and Restaurants,144.96683000000002,-37.81222
2019,Shanghai Street Xiaolong Bao & Dumplings,Cafes and Restaurants,144.96765,-37.812470000000005
2019,Shanghai Dragon Dumpling House,Cafes and Restaurants,144.96765,-37.812470000000005
2019,Nam Loong Seafood Restaurant,Cafes and Restaurants,144.96759,-37.81238
2019,Ta-Ta House,Cafes and Restaurants,144.96753,-37.812259999999995
2019,Musashi Ramen Restaurant,Cafes and Restaurants,144.96751,-37.81222
2019,Jinzhou Royal Barbecue,Cafes and Restaurants,144.96743999999998,-37.81207
2019,Teaser Fengcha,Other Specialised Food Retailing,144.9674,-37.812
2019,Da Hu Peking Duck Restaurant,Cafes and Restaurants,144.9674,-37.812
2019,The Tasty Spicy Hot Pot,Cafes and Restaurants,144.96561,-37.81279
2019,YGF Metalang,Cafes and Restaurants,144.96757,-37.81234
2019,Crazy Wing,Cafes and Restaurants,144.96755,-37.8123
2019,Riverland Bar,Cafes and Restaurants,144.96866,-37.818670000000004
2019,Pilgrim,Cafes and Restaurants,144.96866,-37.818670000000004
2019,Time Out Cafe,Cafes and Restaurants,144.96982,-37.81779
2019,Arintji,Cafes and Restaurants,144.96982,-37.81779
2019,Il Pom Italian,Cafes and Restaurants,144.96982,-37.81779
2019,Crossbar Cafe,Cafes and Restaurants,144.96982,-37.81779
2019,Chocolate Buddha,Cafes and Restaurants,144.96982,-37.81779
2019,ACMI Cafe & Bar,Cafes and Restaurants,144.96982,-37.81779
2019,Taxi Riverside,Non-Residential Property Operators,144.96982,-37.81779
2019,Beer De Luxe,"Pubs, Taverns and Bars",144.96982,-37.81779
2019,Transit Rooftop Bar,"Pubs, Taverns and Bars",144.96982,-37.81779
2019,Taxi Kitchen,Cafes and Restaurants,144.96982,-37.81779
2019,Little Ramen Bar,Cafes and Restaurants,144.96228,-37.81321
2019,Ace Poke,Takeaway Food Services,144.96228,-37.81321
2019,Hana's Kitchen,Takeaway Food Services,144.96228,-37.81321
2019,Shanghai Street,Cafes and Restaurants,144.96228,-37.81321
2019,Rare Steakhouse Midtown,Cafes and Restaurants,144.96078,-37.813390000000005
2019,Miznon,Cafes and Restaurants,144.96097,-37.81338
2019,The Mill,Cafes and Restaurants,144.96091,-37.81323
2019,Amigos Hardware Lane,Cafes and Restaurants,144.96087,-37.813140000000004
2019,Vons Restaurant & Bar,Cafes and Restaurants,144.96111000000002,-37.81307
2019,Grill Steak Seafood,Cafes and Restaurants,144.96116999999998,-37.813179999999996
2019,Il Nostro Posto,Cafes and Restaurants,144.96121000000002,-37.81329
2019,Max Bar & Restaurant,Cafes and Restaurants,144.96126,-37.813390000000005
2019,Whitehart,"Pubs, Taverns and Bars",144.96188,-37.81275
2019,Restaurant Shik,Cafes and Restaurants,144.96145,-37.81288
2019,Sun Moth Canteen & Bar,Cafes and Restaurants,144.96145,-37.81288
2019,Crust Gourmet Pizza Bar Melbourne,Cafes and Restaurants,144.96145,-37.81288
2019,Club Retro,"Pubs, Taverns and Bars",144.9612,-37.81285
2019,Top Tongue,Cafes and Restaurants,144.96101000000002,-37.81288
2019,Golden Monkey,"Pubs, Taverns and Bars",144.96101000000002,-37.81288
2019,Tsuta,Cafes and Restaurants,144.96101000000002,-37.81288
2019,Claypots Barbarossa,Cafes and Restaurants,144.96069,-37.81305
2019,A25 Pizzeria,Cafes and Restaurants,144.96069,-37.81305
2019,Hawker Boys,Cafes and Restaurants,144.96069,-37.81305
2019,Brooklyn Depot Melbourne,Cafes and Restaurants,144.96069,-37.81305
2019,Spud Bar,Takeaway Food Services,144.9609,-37.81366
2019,Area 4,Takeaway Food Services,144.96107,-37.8136
2019,Ciao Pizza Napoli Restaurant,Cafes and Restaurants,144.96107,-37.8136
2019,Khokolat Bar,"Pubs, Taverns and Bars",144.96107,-37.8136
2019,Kirk's Wine Bar,Cafes and Restaurants,144.96133,-37.81354
2019,French Saloon,Cafes and Restaurants,144.96133,-37.81354
2019,Blok M Express,Cafes and Restaurants,144.96133,-37.81354
2019,Kirk's Public Bar,"Pubs, Taverns and Bars",144.96133,-37.81354
2019,+39 Pizzeria & Antipasteria,Cafes and Restaurants,144.96175,-37.81327
2019,Cafe Shots Espresso Bar,Takeaway Food Services,144.96016,-37.8132
2019,Goodovening,Cafes and Restaurants,144.96048000000002,-37.81347
2019,Queen Street Foodstore,Cafes and Restaurants,144.96048000000002,-37.81347
2019,Little Sparrow Melbourne,Takeaway Food Services,144.96393,-37.812470000000005
2019,Charlie & Co,Cafes and Restaurants,144.96393,-37.812470000000005
2019,Earl Canteen,Takeaway Food Services,144.96393,-37.812470000000005
2019,Bombay Bar,Takeaway Food Services,144.96393,-37.812470000000005
2019,South Melbourne Market Dim Sims,Takeaway Food Services,144.96393,-37.812470000000005
2019,ES Teler 77,Takeaway Food Services,144.96393,-37.812470000000005
2019,Bar Napoli,Takeaway Food Services,144.96393,-37.812470000000005
2019,New Shanghai,Cafes and Restaurants,144.96393,-37.812470000000005
2019,Spudbar,Takeaway Food Services,144.96393,-37.812470000000005
2019,Calia,Cafes and Restaurants,144.96393,-37.812470000000005
2019,Nabe One,Cafes and Restaurants,144.96393,-37.812470000000005
2019,Cafe Blush,Cafes and Restaurants,144.96393,-37.812470000000005
2019,Gyoza Gyoza,Cafes and Restaurants,144.96393,-37.812470000000005
2019,Din Tai Fung,Cafes and Restaurants,144.96393,-37.812470000000005
2019,T Mix,Takeaway Food Services,144.96393,-37.812470000000005
2019,Makoto,Cafes and Restaurants,144.96393,-37.812470000000005
2019,Pho Nom,Cafes and Restaurants,144.96393,-37.812470000000005
2019,Kyo Teahouse,Cafes and Restaurants,144.96393,-37.812470000000005
2019,Dumplings Plus,Cafes and Restaurants,144.96393,-37.812470000000005
2019,Botica,Takeaway Food Services,144.96393,-37.812470000000005
2019,1000 Wat,Cafes and Restaurants,144.96393,-37.812470000000005
2019,Ramen Ya,Cafes and Restaurants,144.96393,-37.812470000000005
2019,Dainty Sichuan Noodle Express,Cafes and Restaurants,144.96393,-37.812470000000005
2019,Toyko Pop,Cafes and Restaurants,144.96393,-37.812470000000005
2019,Tetsujin,Cafes and Restaurants,144.96393,-37.812470000000005
2019,Beneath Driver Lane,"Pubs, Taverns and Bars",144.96313,-37.81293
2019,Sweet Canteen,Other Specialised Food Retailing,144.96313,-37.81293
2019,Penny Blue,"Pubs, Taverns and Bars",144.96313,-37.81293
2019,8 Bit,Cafes and Restaurants,144.96483999999998,-37.81252
2019,Tina's Noodle Kitchen,Cafes and Restaurants,144.9648,-37.81245
2019,Mekong Vietnam,Cafes and Restaurants,144.96478000000002,-37.81239
2019,The Lounge,Cafes and Restaurants,144.96473999999998,-37.8123
2019,Rice Paper Vietnamese Restaurant,Cafes and Restaurants,144.96473999999998,-37.8123
2019,YourThai Rice & Noodle Bar,Cafes and Restaurants,144.96466999999998,-37.81216
2019,China Bar,Cafes and Restaurants,144.96465,-37.81211
2019,Chop Shop Korean BBQ,Cafes and Restaurants,144.96463,-37.812059999999995
2019,Nelayan,Cafes and Restaurants,144.9646,-37.81201
2019,OPPA (Korean Kitchen),Cafes and Restaurants,144.96455,-37.8119
2019,Taiwan Cafe,Cafes and Restaurants,144.96453,-37.811859999999996
2019,Supper Inn Chinese Restaurant,Cafes and Restaurants,144.96613,-37.81188
2019,Heyday Hong Kong Cafe,Cafes and Restaurants,144.96636999999998,-37.811809999999994
2019,International Diethnes Cakes,Cafes and Restaurants,144.96685,-37.81119
2019,@T Ease,Cafes and Restaurants,144.96663,-37.81127
2019,Tsindos Greek Restaurant,Cafes and Restaurants,144.96658,-37.81128
2019,Carribbean Grilled Fish by China Chilli,Cafes and Restaurants,144.96635,-37.81133
2019,Boilermaker House,"Pubs, Taverns and Bars",144.96626,-37.81143
2019,Pacific BBQ Cafe,Cafes and Restaurants,144.96614,-37.811440000000005
2019,Touche Hombre,Cafes and Restaurants,144.96555,-37.81158
2019,By Korea,Cafes and Restaurants,144.96559,-37.8121
2019,Mao Please,Cafes and Restaurants,144.96622,-37.81205
2019,The Crane,Cafes and Restaurants,144.96628,-37.81203
2019,Ling Nam Chinese Restaurant,Cafes and Restaurants,144.96653999999998,-37.81199
2019,Juicy Bao,Cafes and Restaurants,144.96694,-37.81187
2019,Bornga Melbourne,Cafes and Restaurants,144.96694,-37.81187
2019,Jin Dumpling And Noodle House,Cafes and Restaurants,144.96713,-37.811859999999996
2019,Sweetie And Moustache Dessert Lounge,Cafes and Restaurants,144.9673,-37.8117
2019,Aunty Frankles,Cafes and Restaurants,144.9673,-37.8117
2019,Minh Xuong Seafood & BBQ Restaurant,Cafes and Restaurants,144.96726999999998,-37.811640000000004
2019,He She Eat Canteen,Cafes and Restaurants,144.96724,-37.81156
2019,Dragon Hot Pot,Cafes and Restaurants,144.96724,-37.81156
2019,Nam Loong Restaurant,Cafes and Restaurants,144.96716999999998,-37.811409999999995
2019,Ma Lu Bian Bian Hot Pot,Cafes and Restaurants,144.96716999999998,-37.811409999999995
2019,Town Tea,Cafes and Restaurants,144.96708999999998,-37.81123
2019,Stalactites Restaurant,Cafes and Restaurants,144.96704,-37.81112
2019,House of Correction,"Pubs, Taverns and Bars",144.96515,-37.811809999999994
2019,Noodle Kingdom/Gong De Lin,Cafes and Restaurants,144.96515,-37.811809999999994
2019,Cookie,"Pubs, Taverns and Bars",144.96527,-37.81199
2019,Spicy Noodle Queen,Cafes and Restaurants,144.96538,-37.81222
2019,Belleville,Cafes and Restaurants,144.96543,-37.812329999999996
2019,Shanghai Dumpling Restaurant,Cafes and Restaurants,144.96544,-37.811859999999996
2019,Section 8 Bar,"Pubs, Taverns and Bars",144.96538999999999,-37.81176
2019,Old Crystal Jade Steamboat,Cafes and Restaurants,144.96703,-37.81172
2019,New Kum Den Chinese Restaurant,Cafes and Restaurants,144.96698999999998,-37.81162
2019,Manchuria,Cafes and Restaurants,144.96698999999998,-37.81162
2019,Hot Space,Cafes and Restaurants,144.96694,-37.8115
2019,Rice Workshop,Cafes and Restaurants,144.96578,-37.81225
2019,Yang's Braised Chicken Rice,Cafes and Restaurants,144.96587,-37.81222
2019,Six Po Hot Pot,Cafes and Restaurants,144.96712,-37.8113
2019,Shujinko,Cafes and Restaurants,144.96714,-37.81134
2019,Oriental Spoon,Cafes and Restaurants,144.96171,-37.81179
2019,Little Fish & Rice Town,Cafes and Restaurants,144.96167,-37.81171
2019,G2 Korean BBQ,Cafes and Restaurants,144.96163,-37.811609999999995
2019,Easy Pot,Cafes and Restaurants,144.9616,-37.81155
2019,Pepper Lunch,Cafes and Restaurants,144.96156000000002,-37.81147
2019,Hadware Street Cafe,Takeaway Food Services,144.96039,-37.81211
2019,White Mojo,Cafes and Restaurants,144.96039,-37.81211
2019,Hardware Societe,Cafes and Restaurants,144.96039,-37.81211
2019,Mjolner Melbourne,"Pubs, Taverns and Bars",144.96068,-37.81214
2019,Mook Ji Bar,Cafes and Restaurants,144.96033,-37.81245
2019,Hash Specialty Coffee And Roasters,Cafes and Restaurants,144.96053,-37.81241
2019,Yami Yami,Cafes and Restaurants,144.96053,-37.81241
2019,Zambrero,Cafes and Restaurants,144.96079,-37.81237
2019,Melbourne Meets Shanghai,Cafes and Restaurants,144.96096,-37.81235
2019,Bread Kingdom,Bakery Product Manufacturing (Non-factory based),144.96147,-37.81223
2019,Zam Zam Restaurant,Cafes and Restaurants,144.96147,-37.81223
2019,Mamak,Cafes and Restaurants,144.96147,-37.81223
2019,Noodle Villa,Cafes and Restaurants,144.96178999999998,-37.81214
2019,Tang Huo Kung Fu,Cafes and Restaurants,144.96178999999998,-37.81214
2019,A New Life,Cafes and Restaurants,144.96053999999998,-37.811809999999994
2019,Gypsy & Pig,Cafes and Restaurants,144.96034,-37.81187
2019,CJ Lunchbar,Cafes and Restaurants,144.96034,-37.81187
2019,Horse Bazaar,"Pubs, Taverns and Bars",144.96025,-37.8119
2019,Novotel/Ibis Melbourne Central,Accommodation,144.96014,-37.81205
2019,Red Cliff Chinese Restaurant,Cafes and Restaurants,144.95995,-37.81248
2019,Aroma Studio,Cafes and Restaurants,144.95996,-37.81269
2019,Schnitz QV,Cafes and Restaurants,144.96572,-37.81068
2019,Where's Marcel?,Takeaway Food Services,144.96572,-37.81068
2019,Papparich,Cafes and Restaurants,144.96572,-37.81068
2019,Gong Cha,Takeaway Food Services,144.96572,-37.81068
2019,Chocolateria San Churro QV,Cafes and Restaurants,144.96572,-37.81068
2019,Idarts Hive,"Pubs, Taverns and Bars",144.96572,-37.81068
2019,Father's Office,"Pubs, Taverns and Bars",144.96572,-37.81068
2019,Hakata Gensuke QV,Cafes and Restaurants,144.96572,-37.81068
2019,Plantation Speciality Coffee Roasters,Cafes and Restaurants,144.96572,-37.81068
2019,Gloria Jeans,Cafes and Restaurants,144.96572,-37.81068
2019,Meat Fish Wine,Cafes and Restaurants,144.96572,-37.81068
2019,Red Spice QV,Cafes and Restaurants,144.96572,-37.81068
2019,No Vacancy,Other Store-Based Retailing n.e.c.,144.96572,-37.81068
2019,Ippudo,Cafes and Restaurants,144.96572,-37.81068
2019,Squisito Bar,Cafes and Restaurants,144.96572,-37.81068
2019,Shophouse Kitcken,Cafes and Restaurants,144.96572,-37.81068
2019,Max Brenner Chocolates,Cafes and Restaurants,144.96572,-37.81068
2019,Hanaichi,Cafes and Restaurants,144.96572,-37.81068
2019,Grill'd (QV),Cafes and Restaurants,144.96572,-37.81068
2019,Little Sichuan,Cafes and Restaurants,144.96572,-37.81068
2019,Breadtop Bakery,Bakery Product Manufacturing (Non-factory based),144.96572,-37.81068
2019,Yokozuna Express,Takeaway Food Services,144.96572,-37.81068
2019,Honest Food,Takeaway Food Services,144.96572,-37.81068
2019,Hangar Cafe QV,Takeaway Food Services,144.96572,-37.81068
2019,Strike Bowling,"Sports and Physical Recreation Venues, Grounds and Facilities Operation",144.96572,-37.81068
2019,Cafenatics QV,Cafes and Restaurants,144.96572,-37.81068
2019,Tokyo Japanese Restaurant,Cafes and Restaurants,144.96146000000002,-37.81122
2019,Isshin Ramen Bar,Cafes and Restaurants,144.96121000000002,-37.81067
2019,Brick Lane Cafe,Cafes and Restaurants,144.95986000000002,-37.81146
2019,Krimper,Cafes and Restaurants,144.96013,-37.81116
2019,Davids Hot Pot,Cafes and Restaurants,144.96086,-37.81074
2019,Ikkoryu Fukuoka Ramen on La Trobe,Cafes and Restaurants,144.95996,-37.81098
2019,Badger Vs Hawk,Takeaway Food Services,144.95963999999998,-37.81107
2019,Spice Story,Cafes and Restaurants,144.96094,-37.81127
2019,Shortstop Coffee & Donuts,Takeaway Food Services,144.96094,-37.81127
2019,Raw Trader,Cafes and Restaurants,144.96094,-37.81127
2019,Wings of Glory,Cafes and Restaurants,144.96094,-37.81127
2019,Water Flame,Cafes and Restaurants,144.95967,-37.811809999999994
2019,Don Too,Cafes and Restaurants,144.95967,-37.811809999999994
2019,Corner Lane Cafe,Cafes and Restaurants,144.95967,-37.811809999999994
2019,Dare 1,Cafes and Restaurants,144.96028,-37.81158
2019,Cat Cafe Melbourne,Cafes and Restaurants,144.95987,-37.81123
2019,Sister Bella,"Pubs, Taverns and Bars",144.96382,-37.81135
2019,Fourteen on 10,Cafes and Restaurants,144.96206,-37.81088
2019,Billy's Central,Cafes and Restaurants,144.96277,-37.81051
2019,STREAT,Takeaway Food Services,144.96277,-37.81051
2019,Frozen by a Thousand Blessings,Cafes and Restaurants,144.96277,-37.81051
2019,Schnitz Melbourne Central,Takeaway Food Services,144.96277,-37.81051
2019,Cupcake Central,Cafes and Restaurants,144.96277,-37.81051
2019,Elles Naturally,Cafes and Restaurants,144.96277,-37.81051
2019,Chilli India,Cafes and Restaurants,144.96277,-37.81051
2019,Food Inc.,Cafes and Restaurants,144.96277,-37.81051
2019,Soul Origin,Takeaway Food Services,144.96277,-37.81051
2019,Asian Beer Cafe,Cafes and Restaurants,144.96277,-37.81051
2019,Top Juice,Takeaway Food Services,144.96277,-37.81051
2019,Plantation Cafe,Takeaway Food Services,144.96277,-37.81051
2019,Gloria Jeans Level 2,Cafes and Restaurants,144.96277,-37.81051
2019,Rustica,Cafes and Restaurants,144.96277,-37.81051
2019,Unabara/Gyoza Gyoza,Cafes and Restaurants,144.96277,-37.81051
2019,Mr Burger,Takeaway Food Services,144.96277,-37.81051
2019,Harajuku Crepes,Takeaway Food Services,144.96277,-37.81051
2019,Nene Chicken Melbourne Central,Takeaway Food Services,144.96277,-37.81051
2019,Menya Ramen,Takeaway Food Services,144.96277,-37.81051
2019,Lord of the Fries Melbourne Central,Takeaway Food Services,144.96277,-37.81051
2019,Diesel Bar,"Pubs, Taverns and Bars",144.96277,-37.81051
2019,Makoto Melbourne Central,Cafes and Restaurants,144.96277,-37.81051
2019,Chatime (Lvl 1),Takeaway Food Services,144.96277,-37.81051
2019,Kolkata Kati,Takeaway Food Services,144.96277,-37.81051
2019,Ajisen Ramen,Cafes and Restaurants,144.96277,-37.81051
2019,365 Food Store & Raw Taste Project,Takeaway Food Services,144.96277,-37.81051
2019,Uncle Tetsu,Takeaway Food Services,144.96277,-37.81051
2019,Sushi Sushi Central,Takeaway Food Services,144.96277,-37.81051
2019,Don Don Japanese Restaurant,Cafes and Restaurants,144.96277,-37.81051
2019,Naughty Nuri's Warung and Grill,Cafes and Restaurants,144.96277,-37.81051
2019,TGI Fridays Restarant & Bar,Cafes and Restaurants,144.96277,-37.81051
2019,Nando's Melbourne Central,Cafes and Restaurants,144.96277,-37.81051
2019,B. Lucky & Sons,"Pubs, Taverns and Bars",144.96277,-37.81051
2019,Strike Melbourne Central,"Sports and Physical Recreation Venues, Grounds and Facilities Operation",144.96277,-37.81051
2019,Melbourne Central Lion Hotel,"Pubs, Taverns and Bars",144.96277,-37.81051
2019,Sakura Kaiten Sushi II,Cafes and Restaurants,144.964,-37.81153
2019,Charming Spice,Cafes and Restaurants,144.964,-37.81153
2019,Tokui Sushi,Takeaway Food Services,144.96436,-37.81143
2019,Bornga,Cafes and Restaurants,144.96436,-37.81143
2019,Little Nic Cafe,Takeaway Food Services,144.96436,-37.81143
2019,Guzman Y Gomez Swanston Street,Cafes and Restaurants,144.96426,-37.81123
2019,Cheek,Cafes and Restaurants,144.96419,-37.81108
2019,Ramen Bankara,Cafes and Restaurants,144.96417,-37.81102
2019,D House Cafe,Cafes and Restaurants,144.96411,-37.81089
2019,Wonder Bowl,Cafes and Restaurants,144.96405,-37.81077
2019,One Zo,Takeaway Food Services,144.96405,-37.81077
2019,Mr Kitchen,Takeaway Food Services,144.96405,-37.81077
2019,Little Rogue,Takeaway Food Services,144.96415,-37.810970000000005
2019,The Moat Bar & Cafe,Cafes and Restaurants,144.9653,-37.80977
2019,Guild,Cafes and Restaurants,144.9653,-37.80977
2019,Mr Tulk Cafe,Cafes and Restaurants,144.9653,-37.80977
2019,Melbourne Kebab Box,Takeaway Food Services,144.94096000000002,-37.78974
2019,Woolstore & Co,Cafes and Restaurants,144.93767,-37.79162
2019,64 Sutton,Cafes and Restaurants,144.93767,-37.79162
2019,Souperman,Catering Services,144.93871000000001,-37.79407
2019,Mr Tucker,Takeaway Food Services,144.9414,-37.79502
2019,Pocket Cafe,Cafes and Restaurants,144.9414,-37.79502
2019,Melrose Takeaway,Takeaway Food Services,144.9414,-37.79502
2019,Cafe Innov-8,Cafes and Restaurants,144.9414,-37.79502
2019,Thyme Square Cafe,Cafes and Restaurants,144.94671,-37.79356
2019,North End Deli,Cafes and Restaurants,144.9382,-37.79558
2019,Reynolds St Takeaway,Takeaway Food Services,144.93765,-37.79723
2019,Cafe Trutrack,Takeaway Food Services,144.94143,-37.79893
2019,Snapperhead Fish And Chips,Takeaway Food Services,144.9467,-37.79823
2019,Pioneer Pizza A,Takeaway Food Services,144.9467,-37.79823
2019,9 FaceThai Cuisine,Takeaway Food Services,144.9467,-37.79823
2019,Papa Guiseppe Pizza & Pasta,Takeaway Food Services,144.94651000000002,-37.79873
2019,Elceed Cafe,Cafes and Restaurants,144.94714,-37.80253
2019,Twenty & Six Espresso,Cafes and Restaurants,144.94754,-37.80257
2019,Queensberry Lunch Bar,Takeaway Food Services,144.94478999999998,-37.80235
2019,Beatrix Cafe,Cafes and Restaurants,144.94446000000002,-37.80227
2019,Oskar,Cafes and Restaurants,144.94898,-37.80489
2019,Joe Taylor,"Pubs, Taverns and Bars",144.94901000000002,-37.8048
2019,The Hot Poppy,Cafes and Restaurants,144.94899999999998,-37.80475
2019,Salt Seafood and Burger Bar,Takeaway Food Services,144.94903,-37.8047
2019,Toast Kitchen Cafe,Cafes and Restaurants,144.94904,-37.80464
2019,Ferguson Plarre Bakehouse,Takeaway Food Services,144.94907,-37.80435
2019,S & J Sushi Noodle Town,Cafes and Restaurants,144.94881999999998,-37.80437
2019,Townhall Hotel North Melbourne,"Pubs, Taverns and Bars",144.9488,-37.804120000000005
2019,Char Siu House,Cafes and Restaurants,144.94908999999998,-37.804120000000005
2019,Wonky Trolley,Cafes and Restaurants,144.94906,-37.803909999999995
2019,Dong Xing Asian Food & Sushi Noodle Bar,Takeaway Food Services,144.94904,-37.80386
2019,Agraba,Cafes and Restaurants,144.94921000000002,-37.8036
2019,Errol's Cafe,Cafes and Restaurants,144.94908,-37.80346
2019,Snax Deli,Cafes and Restaurants,144.94929,-37.80323
2019,Nizams Indian Restaurant,Cafes and Restaurants,144.94871,-37.80475
2019,Cindy's Kitchen,Takeaway Food Services,144.94871,-37.80475
2019,Fandango,Takeaway Food Services,144.94941,-37.802609999999994
2019,Auction Rooms,Cafes and Restaurants,144.94946000000002,-37.802459999999996
2019,French Quarter Patisserie,Cafes and Restaurants,144.94848000000002,-37.80271
2019,Bela Bistro,Cafes and Restaurants,144.94871,-37.80272
2019,Limerick Castle Hotel & Restaurant,"Pubs, Taverns and Bars",144.94964,-37.801159999999996
2019,Mecure North Melbourne,Accommodation,144.95022,-37.79663
2019,Royal Kebab Cafe,Cafes and Restaurants,144.94842,-37.79508
2019,Reynoldo's,Cafes and Restaurants,144.95012,-37.804140000000004
2019,KL Bunga Raya,Cafes and Restaurants,144.94973000000002,-37.804359999999996
2019,The Comics Lounge,Clubs (Hospitality),144.94988999999998,-37.80457
2019,North Melbourne Roast Chicken and Chips,Takeaway Food Services,144.94965,-37.80471
2019,Sosta Cucina,Cafes and Restaurants,144.94957,-37.804829999999995
2019,Hanoi in North Melbourne,Cafes and Restaurants,144.94957,-37.8049
2019,Roasting Warehouse,Cafes and Restaurants,144.95058999999998,-37.80447
2019,Faces & Places,Cafes and Restaurants,144.94955,-37.804970000000004
2019,El Sabor,Cafes and Restaurants,144.94968,-37.80492
2019,North Melbourne Hotel,Cafes and Restaurants,144.95015,-37.804970000000004
2019,The Sensible Sandwich Cafe,Cafes and Restaurants,144.95054,-37.805009999999996
2019,The Leveson,"Pubs, Taverns and Bars",144.95146,-37.8037
2019,Code Black Howard Street,Cafes and Restaurants,144.95367,-37.80423
2019,Ample Cafe Bar,Cafes and Restaurants,144.9537,-37.8041
2019,Grigons & Orr Corner Store,Cafes and Restaurants,144.95278000000002,-37.80359
2019,Pho Victoria,Cafes and Restaurants,144.95396000000002,-37.80542
2019,Prudence Bar,Cafes and Restaurants,144.95405,-37.80543
2019,Babu Bar Burger with Balls,Cafes and Restaurants,144.95413,-37.805440000000004
2019,Little Africa,Cafes and Restaurants,144.95434,-37.80538
2019,Bobbie Peels,"Pubs, Taverns and Bars",144.95597,-37.80396
2019,Sojung Korean BBQ,Cafes and Restaurants,144.95666,-37.80444
2019,Yeonga,Cafes and Restaurants,144.95692,-37.8056
2019,Maria Trattoria,Cafes and Restaurants,144.95646000000002,-37.8052
2019,La Porchetta,Cafes and Restaurants,144.95638,-37.8057
2019,Hallah,Cafes and Restaurants,144.95739,-37.8058
2019,Woo-Ga,Cafes and Restaurants,144.95739,-37.8058
2019,Donwoori,Cafes and Restaurants,144.95739,-37.8058
2019,Melbourne Toodouri,Cafes and Restaurants,144.95772,-37.80584
2019,Central Club Hotel,"Pubs, Taverns and Bars",144.95812,-37.80591
2019,Shop 30 Coffee,Takeaway Food Services,144.95798,-37.80572
2019,Lucky House in Melbourne,Cafes and Restaurants,144.95828999999998,-37.80471
2019,BBQ Brothers 10,Cafes and Restaurants,144.95812,-37.80461
2019,I Wrap Cafe,Takeaway Food Services,144.95815,-37.80444
2019,Classic Curry Company,Cafes and Restaurants,144.95814,-37.804390000000005
2019,Cafe Perri & Perri Cine Video and Photography,Cafes and Restaurants,144.95812,-37.80435
2019,Metro Cafe,Cafes and Restaurants,144.9545,-37.80305
2019,5 Lire,Cafes and Restaurants,144.9501,-37.80223
2019,The Courthouse Hotel,"Pubs, Taverns and Bars",144.94996,-37.80288
2019,Lulu Cafe & Gallery,Cafes and Restaurants,144.95053000000001,-37.80285
2019,Mr Price's Food Store,Cafes and Restaurants,144.95066,-37.802859999999995
2019,Counter,Takeaway Food Services,144.95003,-37.802479999999996
2019,Mork Chocolate,Cafes and Restaurants,144.95019,-37.80154
2019,Akita Japanese Restaurant,Cafes and Restaurants,144.95446,-37.802040000000005
2019,The Rice Cooker,Cafes and Restaurants,144.95518,-37.80068
2019,St Cooper Cafe,Takeaway Food Services,144.95518,-37.80068
2019,Nemo,Cafes and Restaurants,144.95518,-37.80068
2019,Metropolitan Hotel,"Pubs, Taverns and Bars",144.95408999999998,-37.801429999999996
2019,The Castle Hotel,"Pubs, Taverns and Bars",144.95303,-37.8009
2019,Flavour Cafe,Cafes and Restaurants,144.95432,-37.79973
2019,Eat Pizza,Takeaway Food Services,144.95432,-37.79973
2019,Mum Mum Asian Street Food,Cafes and Restaurants,144.954,-37.79937
2019,New Lanna Thai,Cafes and Restaurants,144.954,-37.79937
2019,The Smith Cafe,Takeaway Food Services,144.95317,-37.79978
2019,Jaspresso,Cafes and Restaurants,144.95286000000002,-37.79857
2019,Avist Cafe,Cafes and Restaurants,144.9527,-37.79844
2019,Dr Dax Kitchen,Cafes and Restaurants,144.96124,-37.79675
2019,House Of Cards Espresso,Takeaway Food Services,144.96124,-37.79675
2019,Pronto Pizza Bar,Takeaway Food Services,144.96124,-37.79675
2019,Oriental House,Cafes and Restaurants,144.96124,-37.79675
2019,Ho Ho's Canteen,Takeaway Food Services,144.96124,-37.79675
2019,Castro's Kiosk,Takeaway Food Services,144.96124,-37.79675
2019,Brew Sisters,Takeaway Food Services,144.96124,-37.79675
2019,Egg Sake Bistro,Cafes and Restaurants,144.96124,-37.79675
2019,The Ida Bar,Cafes and Restaurants,144.96124,-37.79675
2019,The Potter Espresso Bar,Cafes and Restaurants,144.96124,-37.79675
2019,University House Club,Clubs (Hospitality),144.96124,-37.79675
2019,Professor Court Cafe,Takeaway Food Services,144.96124,-37.79675
2019,Carte Crepes,Takeaway Food Services,144.96124,-37.79675
2019,Cafe @ Resource,Takeaway Food Services,144.96124,-37.79675
2019,Brew Sisters Kiosk,Takeaway Food Services,144.96124,-37.79675
2019,Sage & Grace Cafe,Cafes and Restaurants,144.96053999999998,-37.79307
2019,Primary Cafe,Cafes and Restaurants,144.95868000000002,-37.78398
2019,Vibe Hotel,Accommodation,144.95882,-37.7829
2019,Oshin Sushi Bar,Cafes and Restaurants,144.95856,-37.784929999999996
2019,Parkside,Cafes and Restaurants,144.95856,-37.784929999999996
2019,Parkville Store,Cafes and Restaurants,144.95567,-37.79525
2019,Naughtons Parkville Hotel,"Pubs, Taverns and Bars",144.95753,-37.79554
2019,Cafe Royale,Cafes and Restaurants,144.95755,-37.7954
2019,Sargon Food And Co Cafe,Cafes and Restaurants,144.95667,-37.80019
2019,Super 8,Cafes and Restaurants,144.95667,-37.80019
2019,The Loft @ Vccc,Cafes and Restaurants,144.95667,-37.80019
2019,Think Asia VCCC,Cafes and Restaurants,144.95667,-37.80019
2019,Hudsons Coffee Melbourne Private,Cafes and Restaurants,144.95633999999998,-37.79864
2019,Isabella,Cafes and Restaurants,144.955,-37.79885
2019,University High School Canteen,Cafes and Restaurants,144.95606,-37.797470000000004
2019,Corner Cafe & Convenience Store,Cafes and Restaurants,144.93913,-37.77619
2019,Poplars,Cafes and Restaurants,144.94791,-37.77802
2019,Orygen Soul Cafe,Cafes and Restaurants,144.9474,-37.781259999999996
2019,Sandrock,Cafes and Restaurants,144.94953999999998,-37.793620000000004
2019,Parkville Cafe,Cafes and Restaurants,144.94953999999998,-37.793620000000004
2019,McDonalds Royal Children's Hospital,Cafes and Restaurants,144.94953999999998,-37.793620000000004
2019,Aruba Espresso Cafe,Cafes and Restaurants,144.94953999999998,-37.793620000000004
2019,Quando Cafe,Takeaway Food Services,144.94953999999998,-37.793620000000004
2019,Smith And Singleton,Cafes and Restaurants,144.94953999999998,-37.793620000000004
2019,State Netball & Hockey Centre Cafe,Cafes and Restaurants,144.94769,-37.78535
2019,Village Kiosk,Takeaway Food Services,144.95193999999998,-37.784209999999995
2019,Giraffe Cafe,Takeaway Food Services,144.95193999999998,-37.784209999999995
2019,Meerkat Manor,Takeaway Food Services,144.95193999999998,-37.784209999999995
2019,Wild Dog,Takeaway Food Services,144.95193999999998,-37.784209999999995
2019,Lakeside Bistro And Function Centre,Cafes and Restaurants,144.95193999999998,-37.784209999999995
2019,Riverside Takeaway,Takeaway Food Services,144.91063,-37.80381
2019,Port Diner,Takeaway Food Services,144.93427,-37.80895
2019,Dumpling Station,Takeaway Food Services,144.91683,-37.80088
2019,Willo & Co,Takeaway Food Services,144.91651000000002,-37.80087
2019,The Haileyburian,Cafes and Restaurants,144.95292,-37.81111
2019,Rej's Cafe & Kebabs,Cafes and Restaurants,144.95117,-37.811890000000005
2019,Roller Door Cafe,Cafes and Restaurants,144.94212,-37.80592
2019,Tong Fu Garden Melbourne,Cafes and Restaurants,144.94444,-37.80624
2019,Bob's the Name,Cafes and Restaurants,144.9449,-37.80643
2019,Butcher Shop Cafe,Cafes and Restaurants,144.94558,-37.808
2019,Apollo Cafe,Cafes and Restaurants,144.94663,-37.80784
2019,Miami Hotel Melbourne,Accommodation,144.94863,-37.80612
2019,Katmandu Cottage,Cafes and Restaurants,144.94978999999998,-37.80539
2019,Smile Thai Restaurant,Cafes and Restaurants,144.94963,-37.80539
2019,Amiconi,Cafes and Restaurants,144.94958,-37.80538
2019,Three Crowns Hotel,"Pubs, Taverns and Bars",144.94947,-37.8054
2019,One Star Coffee Lounge,Cafes and Restaurants,144.95137,-37.80563
2019,Warung Agus,Cafes and Restaurants,144.95137,-37.80563
2019,Westwood Coffee & Wine,"Pubs, Taverns and Bars",144.95109,-37.80557
2019,Willows & Wine,"Pubs, Taverns and Bars",144.95105,-37.80557
2019,Royal Mail Hotel On Spencer,"Pubs, Taverns and Bars",144.94828,-37.80845
2019,Embassy Cafe,Cafes and Restaurants,144.94779,-37.80811
2019,Toasta & Co,Cafes and Restaurants,144.94607,-37.80936
2019,Indian Biryani Lounge,Cafes and Restaurants,144.94877,-37.80898
2019,Pizza Max,Takeaway Food Services,144.94867,-37.80895
2019,B.Cuz Coffee & Eatery,Cafes and Restaurants,144.94863,-37.80883
2019,Junie Moon's,Cafes and Restaurants,144.94855,-37.80875
2019,Le Taj Restaurant,Cafes and Restaurants,144.95205,-37.80775
2019,Rosslyn Pizzeria,Cafes and Restaurants,144.9524,-37.807520000000004
2019,Smooth Cafe,Takeaway Food Services,144.95256,-37.80741
2019,Don Camillo Cafe Bar Restaurant,Cafes and Restaurants,144.95426,-37.80592
2019,Dolcetti,Cafes and Restaurants,144.95404,-37.8059
2019,Common Ground Coffee,Cafes and Restaurants,144.95395,-37.80588
2019,Chimac,Cafes and Restaurants,144.95541,-37.807179999999995
2019,The Drunken Poet Pty Ltd,"Pubs, Taverns and Bars",144.9555,-37.806670000000004
2019,Lukumades,Takeaway Food Services,144.95558,-37.806290000000004
2019,Chef Panda 888,Cafes and Restaurants,144.95558,-37.8062
2019,Hello Jose,Cafes and Restaurants,144.95558,-37.8062
2019,Soolzip Korean,Takeaway Food Services,144.9556,-37.80607
2019,Chickilia,Takeaway Food Services,144.9556,-37.80607
2019,Loving Hut,Cafes and Restaurants,144.95543999999998,-37.80605
2019,Royal Standard Hotel,"Pubs, Taverns and Bars",144.95426,-37.807809999999996
2019,Witches In Britches Pty Ltd,"Pubs, Taverns and Bars",144.95264,-37.8089
2019,Gap Cafe,Cafes and Restaurants,144.95168,-37.808859999999996
2019,Flames of India,Cafes and Restaurants,144.94975,-37.809309999999996
2019,Magic Hand Car Wash West Melbourne,"Automotive Body, Paint and Interior Repair",144.95011,-37.80973
2019,Apotheke Specialty Coffee,Cafes and Restaurants,144.94857,-37.81022
2019,Hotel Spencer Bar & Grill,"Pubs, Taverns and Bars",144.94925,-37.80957
2019,Spence,Cafes and Restaurants,144.94983,-37.81043
2019,Western Coffee Lounge,Cafes and Restaurants,144.95044,-37.81191
2019,Hansang,Cafes and Restaurants,144.95351000000002,-37.81215
2019,The Moghals,Cafes and Restaurants,144.95325,-37.811659999999996
2019,Rice Too Asian Cuisine,Takeaway Food Services,144.95325,-37.811659999999996
2019,The Dispensa,Cafes and Restaurants,144.95325,-37.811659999999996
2019,Komegashi,Cafes and Restaurants,144.95363,-37.81236
2019,Impresso Cafe,Cafes and Restaurants,144.9536,-37.8123
2019,Biryani House,Cafes and Restaurants,144.95356999999998,-37.81224
2019,City Of Melbourne Bowls Club Inc,"Sports and Physical Recreation Venues, Grounds and Facilities Operation",144.95442,-37.81049
2019,Crust Gourmet Pizza Bar Kensington,Takeaway Food Services,144.92845,-37.79402
2019,Melba Social,Cafes and Restaurants,144.92863,-37.79404
2019,Kensington food hall,Cafes and Restaurants,144.92876,-37.794059999999995
2019,Argi,Cafes and Restaurants,144.92914,-37.79408
2019,New Bakehouse and Coffee,Bakery Product Manufacturing (Non-factory based),144.92931000000002,-37.794090000000004
2019,London K burgers,Cafes and Restaurants,144.92997,-37.79424
2019,The Premises Espresso,Cafes and Restaurants,144.93018,-37.794259999999994
2019,Spinifex Cafe,Cafes and Restaurants,144.93005,-37.79405
2019,Burger basement Kensington,Takeaway Food Services,144.93006,-37.79396
2019,Fruits of Passion,Cafes and Restaurants,144.93001,-37.793929999999996
2019,White Rabbit Record Bar,Cafes and Restaurants,144.92993,-37.793659999999996
2019,Sori Cafe,Cafes and Restaurants,144.92993,-37.79361
2019,Pimm Thai Cafe,Cafes and Restaurants,144.92991999999998,-37.79354
2019,The Quiet Man Irishman  Pub,"Pubs, Taverns and Bars",144.93237,-37.78861
2019,Colab Espresso/Brewtech,Cafes and Restaurants,144.93528,-37.79
2019,La Tortilleria,Cafes and Restaurants,144.9353,-37.79142
2019,Cheeky Brothers,Cafes and Restaurants,144.93591999999998,-37.79107
2019,Luncheonette Cafe,Cafes and Restaurants,144.93111000000002,-37.79436
2019,Crumbs Organic Bakehouse,Cafes and Restaurants,144.93111000000002,-37.79436
2019,Kensington Canteen,Cafes and Restaurants,144.92996000000002,-37.79959
2019,Memphis Blues Cafe,Takeaway Food Services,144.93496000000002,-37.799009999999996
2019,Saha Thai Cafe,Takeaway Food Services,144.93249,-37.794959999999996
2019,1565,Takeaway Food Services,144.93007,-37.7947
2019,Hatchd Chicken,Takeaway Food Services,144.92951000000002,-37.79456
2019,Grounded House,Cafes and Restaurants,144.92946,-37.794579999999996
2019,Clay Oven Pizza,Takeaway Food Services,144.92935,-37.79452
2019,Mr Piccolo Kitchen and Bar,Cafes and Restaurants,144.92924,-37.794540000000005
2019,Hardimans Hotel,"Pubs, Taverns and Bars",144.92834,-37.79444
2019,Local Folk Cafe,Cafes and Restaurants,144.9256,-37.79224
2019,Al Capone's Pizzeria,Cafes and Restaurants,144.91941,-37.79173
2019,Don't Tell Charles Coffee & Desserts,Cafes and Restaurants,144.9163,-37.7938
2019,Victoria Racing Club Limited,Horse and Dog Racing Administration and Track Operation,144.91286000000002,-37.78906
2019,Headquarters Tavern,Other Gambling Activities,144.91286000000002,-37.78906
2019,Rye Cafe,Cafes and Restaurants,144.9151,-37.78225
2019,Pacinos Italian Restaurant,Cafes and Restaurants,144.9151,-37.78225
2019,Bamboo Garden,Takeaway Food Services,144.9151,-37.78225
2019,Provata Urban Larder & Cafe,Cafes and Restaurants,144.9151,-37.78225
2019,Zigzag Salads & Burgers,Cafes and Restaurants,144.9151,-37.78225
2019,Hem 27,Cafes and Restaurants,144.9151,-37.78225
2019,Eat Pizza Flinders Street,Takeaway Food Services,144.95651,-37.82098
2019,Tokyo Maki,Cafes and Restaurants,144.95651,-37.82098
2019,Nandos Northbank,Cafes and Restaurants,144.95651,-37.82098
2019,Di Parsia Pasticceria Cafe,Takeaway Food Services,144.95591000000002,-37.821090000000005
2019,Nomads Melbourne,Accommodation,144.95744,-37.80999
2019,Buza Chicken,Cafes and Restaurants,144.95799,-37.80988
2019,Asia Pacific Centre,Clubs (Hospitality),144.95797,-37.8097
2019,Radisson On Flagstaff Gardens,Accommodation,144.95612,-37.810320000000004
2019,GJ's Grill,Cafes and Restaurants,144.95664,-37.8097
2019,Diner on Franklyn,Cafes and Restaurants,144.95664,-37.8097
2019,Pegasus Apartment Hotel,Accommodation,144.95708,-37.81006
2019,Tokyo Ya Japanese Restaurant,Cafes and Restaurants,144.9566,-37.81017
2019,Cupanda Kitchen,Cafes and Restaurants,144.96001,-37.80914
2019,Workshop,"Pubs, Taverns and Bars",144.96052,-37.80919
2019,Raan Kan Eang,Cafes and Restaurants,144.96049,-37.80912
2019,Shujinko Ramen,Cafes and Restaurants,144.96043,-37.80898
2019,Rose Garden Barbecue Shop,Cafes and Restaurants,144.96034,-37.808859999999996
2019,Teh Tarik Corner,Takeaway Food Services,144.96014,-37.80874
2019,Malaysian Laksa House,Cafes and Restaurants,144.96022,-37.80856
2019,Mansae Korean BBQ & Bar,Cafes and Restaurants,144.95956999999999,-37.80904
2019,Andrew's Hamburgers,Cafes and Restaurants,144.95956999999999,-37.80904
2019,Plus 852 Cafe,Cafes and Restaurants,144.95956999999999,-37.80904
2019,Oh My Brew,Takeaway Food Services,144.95956999999999,-37.80904
2019,Jojo Little Kitchen,Cafes and Restaurants,144.95956999999999,-37.80904
2019,Phancy Cafe & Catering,Cafes and Restaurants,144.95847,-37.80898
2019,Torasan Ramen,Cafes and Restaurants,144.96116,-37.80895
2019,Nene Chicken (Elizabeth St),Cafes and Restaurants,144.96116,-37.80895
2019,No 1 Delicious,Cafes and Restaurants,144.96176,-37.808170000000004
2019,Sarawak Kitchen Express,Cafes and Restaurants,144.96176,-37.808170000000004
2019,The Vine Coffee Roasters,Cafes and Restaurants,144.96268999999998,-37.80826
2019,Kaki Lima RMIT,Takeaway Food Services,144.96268999999998,-37.80826
2019,Grain Store,Cafes and Restaurants,144.95666,-37.81987
2019,Leap's Bakery Cafe,Takeaway Food Services,144.95666,-37.81987
2019,Hardware Societe Pty Ltd,Cafes and Restaurants,144.95666,-37.81987
2019,Delhi Streets,Cafes and Restaurants,144.95666,-37.81987
2019,Mr Huang Jin,Cafes and Restaurants,144.95666,-37.81987
2019,Five & Dime Bagel,Bakery Product Manufacturing (Non-factory based),144.95666,-37.81987
2019,Hunters' Roots,Takeaway Food Services,144.95666,-37.81987
2019,Altius Coffee Brewers,Takeaway Food Services,144.95666,-37.81987
2019,Thataboy,"Pubs, Taverns and Bars",144.95666,-37.81987
2019,Bibimbap,Cafes and Restaurants,144.95666,-37.81987
2019,YHA Melbourne Central,Accommodation,144.95563,-37.8206
2019,Punthill Melbourne Northbank / Mini Bar,Accommodation,144.95577,-37.820609999999995
2019,Cafe Keyif,Cafes and Restaurants,144.95597,-37.82039
2019,Flinders Kebab,Takeaway Food Services,144.95644,-37.820240000000005
2019,Shonan Kamakura,Cafes and Restaurants,144.95644,-37.820240000000005
2019,Stand Up Cafe,Takeaway Food Services,144.95676,-37.82027
2019,Viva Kebabs,Cafes and Restaurants,144.95688,-37.820240000000005
2019,Waterside Hotel,"Pubs, Taverns and Bars",144.95715,-37.820170000000005
2019,State Of Grace,Cafes and Restaurants,144.95695,-37.819759999999995
2019,Holiday Inn On Flinders Melbourne,Accommodation,144.9551,-37.8202
2019,Best Western Melbourne City,Accommodation,144.95525,-37.82051
2019,Cherry & Twigs,Cafes and Restaurants,144.95584,-37.82002
2019,Simply Spanish,Cafes and Restaurants,144.95768999999999,-37.80724
2019,El Rincon,Takeaway Food Services,144.95768999999999,-37.80724
2019,Coffea Coffee,Cafes and Restaurants,144.95768999999999,-37.80724
2019,Romeo Takeaway Cafe,Takeaway Food Services,144.95768999999999,-37.80724
2019,South Melbourne Dim Sims,Takeaway Food Services,144.95768999999999,-37.80724
2019,Pizza @ QV,Cafes and Restaurants,144.95768999999999,-37.80724
2019,Cafe Verona,Takeaway Food Services,144.95768999999999,-37.80724
2019,Q75,Takeaway Food Services,144.95768999999999,-37.80724
2019,Josies Food Bar,Cafes and Restaurants,144.95768999999999,-37.80724
2019,Market Espresso & Trolley Hire,Cafes and Restaurants,144.95768999999999,-37.80724
2019,Invita,Cafes and Restaurants,144.95768999999999,-37.80724
2019,Cafe Victoria,Cafes and Restaurants,144.95768999999999,-37.80724
2019,Pickett's Deli & Rotisserie,Cafes and Restaurants,144.95768999999999,-37.80724
2019,Gozleme Cafe,Cafes and Restaurants,144.95768999999999,-37.80724
2019,Tribel Cafe,Cafes and Restaurants,144.95768999999999,-37.80724
2019,Canton Fast Food,Takeaway Food Services,144.95768999999999,-37.80724
2019,Drums Cafe,Takeaway Food Services,144.95768999999999,-37.80724
2019,Funk Fish,Takeaway Food Services,144.95768999999999,-37.80724
2019,Roasted @ QVM,Takeaway Food Services,144.95768999999999,-37.80724
2019,Market Lane Cafe,Cafes and Restaurants,144.95768999999999,-37.80724
2019,Merlo Coffee,Cafes and Restaurants,144.95768999999999,-37.80724
2019,Little League,Takeaway Food Services,144.95768999999999,-37.80724
2019,Sushi Hub Elizabeth 2,Takeaway Food Services,144.95978,-37.80782
2019,Borek Bakehouse,Takeaway Food Services,144.95978,-37.80782
2019,Podok Rempah,Cafes and Restaurants,144.95979,-37.8076
2019,Jasper Kitchen,Cafes and Restaurants,144.95963,-37.8075
2019,Sung's Kitchen,Cafes and Restaurants,144.95892,-37.80822
2019,Sarawak Kitchen,Cafes and Restaurants,144.95997,-37.80798
2019,Tang's Spicy Hot Pot,Cafes and Restaurants,144.95995,-37.80794
2019,Noodle House By Lao-Luangprabang,Cafes and Restaurants,144.96035,-37.8072
2019,David's Spicy Hot Pot,Cafes and Restaurants,144.96062,-37.80784
2019,Mercure Melbourne Therry Street,Accommodation,144.96081999999998,-37.80742
2019,Captain Melville,"Pubs, Taverns and Bars",144.96161999999998,-37.807520000000004
2019,Hotel Ibis,Accommodation,144.9614,-37.807109999999994
2019,Podium,Cafes and Restaurants,144.96193,-37.806940000000004
2019,Pork Belly House Melbourne,Cafes and Restaurants,144.96209,-37.80729
2019,Kass Kass,Cafes and Restaurants,144.95782,-37.819990000000004
2019,Riverside Deli & Coffee House,Cafes and Restaurants,144.95827,-37.81973
2019,Williams Bar Cafe,Cafes and Restaurants,144.95951000000002,-37.81943
2019,Queen's Kebabs,Takeaway Food Services,144.95747,-37.81953
2019,Gami Chicken & Beer,Cafes and Restaurants,144.95747,-37.81953
2019,King Curry,Cafes and Restaurants,144.95764,-37.81993
2019,Viet Pho & Asian Cuisine,Takeaway Food Services,144.95918999999998,-37.8193
2019,Hudson's Coffee,Cafes and Restaurants,144.95918999999998,-37.8193
2019,Kobab,Takeaway Food Services,144.95918999999998,-37.8193
2019,Wing Loong Chinese Restaurant,Cafes and Restaurants,144.96018999999998,-37.806709999999995
2019,Viet Soul,Cafes and Restaurants,144.96139,-37.81825
2019,Tavistock House Cafe,Cafes and Restaurants,144.96139,-37.81825
2019,Iseya Icecream Bar And Cafe,Takeaway Food Services,144.96155,-37.81884
2019,The Trust,Cafes and Restaurants,144.96042,-37.81865
2019,Koffi Bar,Cafes and Restaurants,144.96178,-37.81823
2019,Shiraaz at CBD Fine Indian Cuisine,Cafes and Restaurants,144.95997,-37.81878
2019,Vacation,Cafes and Restaurants,144.97204,-37.81584
2019,Bonnie Coffee Co,Cafes and Restaurants,144.97204,-37.81584
2019,The Fair Trader Cafe (Kiosk),Cafes and Restaurants,144.97173,-37.815459999999995
2019,The Fair Trader Cafe,Cafes and Restaurants,144.97173,-37.815459999999995
2019,The French Brasserie,Cafes and Restaurants,144.97173,-37.815459999999995
2019,Trinket,Cafes and Restaurants,144.97138999999999,-37.81543
2019,Swiss Club Restaurant,Cafes and Restaurants,144.97138999999999,-37.81543
2019,Garden State Hotel,"Pubs, Taverns and Bars",144.9711,-37.815529999999995
2019,Cafe Kinetic,Cafes and Restaurants,144.97096000000002,-37.81557
2019,Bullrun,Cafes and Restaurants,144.97083,-37.81561
2019,Sake Restaurant and Bar,Cafes and Restaurants,144.97051000000002,-37.815670000000004
2019,Chin Chin Restaurant,Cafes and Restaurants,144.9704,-37.815690000000004
2019,Meatball & Wine Bar,Cafes and Restaurants,144.97016000000002,-37.815740000000005
2019,Coda Bar & Restaurant,Cafes and Restaurants,144.96988000000002,-37.8158
2019,The Duke of Wellington,"Pubs, Taverns and Bars",144.97009,-37.81641
2019,Cento Mani,Takeaway Food Services,144.97034,-37.81637
2019,Desi Dhaba,Cafes and Restaurants,144.97043,-37.8163
2019,Pastuso,Cafes and Restaurants,144.97116,-37.81601
2019,A Hereford Beefstouw,Cafes and Restaurants,144.97137,-37.815940000000005
2019,Tonka Bar & Restaurant,Cafes and Restaurants,144.97148,-37.8159
2019,Bowery to Williamsburg,Cafes and Restaurants,144.97028999999998,-37.81615
2019,Lucy Liu's Kitchen & Bar,Cafes and Restaurants,144.9699,-37.816
2019,Lee Ho Fook,Cafes and Restaurants,144.97132,-37.81559
2019,Eau-De-Vie,"Pubs, Taverns and Bars",144.97168,-37.81595
2019,Fonda Flinders Lane,Cafes and Restaurants,144.97329,-37.8149
2019,Cumulus Inc/Cumulus Up,Cafes and Restaurants,144.97313,-37.81494
2019,Cecconi's Flinders Lane,Cafes and Restaurants,144.97251,-37.815059999999995
2019,Eastside,Cafes and Restaurants,144.97224,-37.81515
2019,Felt Restaurant,Cafes and Restaurants,144.97359,-37.815290000000005
2019,The Truffula Seed Cafe,Cafes and Restaurants,144.97378999999998,-37.81499
2019,Mercure Hotel,Accommodation,144.9742,-37.81477
2019,Tom Thumb Espresso,Cafes and Restaurants,144.97284,-37.814859999999996
2019,The Press Club,Cafes and Restaurants,144.97271999999998,-37.815459999999995
2019,No 8 Exhibition Cafe,Cafes and Restaurants,144.97271999999998,-37.815459999999995
2019,Gazi,Cafes and Restaurants,144.97271999999998,-37.815459999999995
2019,Sea Life Melbourne Aquarium,Zoological and Botanical Gardens Operation,144.95851000000002,-37.82059
2019,Restaurant 1903,Cafes and Restaurants,144.95478,-37.81973
2019,Buddabah,Cafes and Restaurants,144.95571999999999,-37.81902
2019,Virgin Active Australia Pty Ltd,Cafes and Restaurants,144.95571999999999,-37.81902
2019,Stockroom567,Cafes and Restaurants,144.95571999999999,-37.81902
2019,Spudbar Collins Street 567,Cafes and Restaurants,144.95571999999999,-37.81902
2019,Guzman Y Gomez,Takeaway Food Services,144.95571999999999,-37.81902
2019,Isshin Healthy Food,Cafes and Restaurants,144.95571999999999,-37.81902
2019,Black Rice,Cafes and Restaurants,144.95571999999999,-37.81902
2019,Batman's Hill On Collins Hotel,Accommodation,144.95469,-37.81929
2019,Krispy Kreme,Bakery Product Manufacturing (Non-factory based),144.95469,-37.81929
2019,Bonnie Coffee Brewers,Takeaway Food Services,144.95812,-37.818540000000006
2019,Alluvial Restaurant,Cafes and Restaurants,144.95812,-37.818540000000006
2019,Market Lane Bar,"Pubs, Taverns and Bars",144.95812,-37.818540000000006
2019,Merchant Osteria Veneta,Cafes and Restaurants,144.95812,-37.818540000000006
2019,Bluestone Wine Lounge,"Pubs, Taverns and Bars",144.95812,-37.818540000000006
2019,Vue De Monde,Cafes and Restaurants,144.95747,-37.81865
2019,St Ali Mercedes Me,Cafes and Restaurants,144.95747,-37.81865
2019,Rare Steakhouse,Cafes and Restaurants,144.95731999999998,-37.819179999999996
2019,The Old Chamber,Cafes and Restaurants,144.96143,-37.81731
2019,Natural History Bar & Grill,Cafes and Restaurants,144.96121000000002,-37.817370000000004
2019,Bluebag,Cafes and Restaurants,144.96111000000002,-37.81745
2019,The Sherlock Holmes Inn,"Pubs, Taverns and Bars",144.96087,-37.81747
2019,Ms Collins,"Pubs, Taverns and Bars",144.96065,-37.81753
2019,Oak & Vine Bar,"Pubs, Taverns and Bars",144.96081999999998,-37.81778
2019,Oak & Vine Restaurant,Cafes and Restaurants,144.96081999999998,-37.81778
2019,Mionma,Cafes and Restaurants,144.96081999999998,-37.81805
2019,Long Macc on Queens,Cafes and Restaurants,144.96161,-37.81774
2019,Harley House,"Pubs, Taverns and Bars",144.97135,-37.81434
2019,Alexandra Club,Clubs (Hospitality),144.97117,-37.8144
2019,Sushi Land,Takeaway Food Services,144.97082,-37.81487
2019,Pezzo,Cafes and Restaurants,144.97082,-37.81487
2019,Barista 101,Cafes and Restaurants,144.97082,-37.81487
2019,Il Solito Posto,Cafes and Restaurants,144.97026,-37.81469
2019,Philippe,Cafes and Restaurants,144.97001,-37.81474
2019,Collins Kitchen,Cafes and Restaurants,144.96988000000002,-37.81508
2019,Blue Bag,Cafes and Restaurants,144.97158000000002,-37.815020000000004
2019,Howitt House,Cafes and Restaurants,144.97372,-37.81372
